<?xml version="1.0" encoding="UTF-8"?>
<vertex>
    <airport>
        <airportID>1</airportID>
        <IATA>GKA</IATA>
        <ICAO>AYGA</ICAO>
        <city>Goroka</city>
        <latitude>-6.081689</latitude>
        <longitude>145.391881</longitude>
    </airport>
    <airport>
        <airportID>2</airportID>
        <IATA>MAG</IATA>
        <ICAO>AYMD</ICAO>
        <city>Madang</city>
        <latitude>-5.207083</latitude>
        <longitude>145.7887</longitude>
    </airport>
    <airport>
        <airportID>3</airportID>
        <IATA>HGU</IATA>
        <ICAO>AYMH</ICAO>
        <city>Mount Hagen</city>
        <latitude>-5.826789</latitude>
        <longitude>144.295861</longitude>
    </airport>
    <airport>
        <airportID>4</airportID>
        <IATA>LAE</IATA>
        <ICAO>AYNZ</ICAO>
        <city>Nadzab</city>
        <latitude>-6.569828</latitude>
        <longitude>146.726242</longitude>
    </airport>
    <airport>
        <airportID>5</airportID>
        <IATA>POM</IATA>
        <ICAO>AYPY</ICAO>
        <city>Port Moresby</city>
        <latitude>-9.443383</latitude>
        <longitude>147.22005</longitude>
    </airport>
    <airport>
        <airportID>6</airportID>
        <IATA>WWK</IATA>
        <ICAO>AYWK</ICAO>
        <city>Wewak</city>
        <latitude>-3.583828</latitude>
        <longitude>143.669186</longitude>
    </airport>
    <airport>
        <airportID>7</airportID>
        <IATA>UAK</IATA>
        <ICAO>BGBW</ICAO>
        <city>Narssarssuaq</city>
        <latitude>61.160517</latitude>
        <longitude>-45.425978</longitude>
    </airport>
    <airport>
        <airportID>8</airportID>
        <IATA>GOH</IATA>
        <ICAO>BGGH</ICAO>
        <city>Godthaab</city>
        <latitude>64.190922</latitude>
        <longitude>-51.678064</longitude>
    </airport>
    <airport>
        <airportID>9</airportID>
        <IATA>SFJ</IATA>
        <ICAO>BGSF</ICAO>
        <city>Sondrestrom</city>
        <latitude>67.016969</latitude>
        <longitude>-50.689325</longitude>
    </airport>
    <airport>
        <airportID>10</airportID>
        <IATA>THU</IATA>
        <ICAO>BGTL</ICAO>
        <city>Thule</city>
        <latitude>76.531203</latitude>
        <longitude>-68.703161</longitude>
    </airport>
    <airport>
        <airportID>11</airportID>
        <IATA>AEY</IATA>
        <ICAO>BIAR</ICAO>
        <city>Akureyri</city>
        <latitude>65.659994</latitude>
        <longitude>-18.072703</longitude>
    </airport>
    <airport>
        <airportID>12</airportID>
        <IATA>EGS</IATA>
        <ICAO>BIEG</ICAO>
        <city>Egilsstadir</city>
        <latitude>65.283333</latitude>
        <longitude>-14.401389</longitude>
    </airport>
    <airport>
        <airportID>13</airportID>
        <IATA>HFN</IATA>
        <ICAO>BIHN</ICAO>
        <city>Hofn</city>
        <latitude>64.295556</latitude>
        <longitude>-15.227222</longitude>
    </airport>
    <airport>
        <airportID>14</airportID>
        <IATA>HZK</IATA>
        <ICAO>BIHU</ICAO>
        <city>Husavik</city>
        <latitude>65.952328</latitude>
        <longitude>-17.425978</longitude>
    </airport>
    <airport>
        <airportID>15</airportID>
        <IATA>IFJ</IATA>
        <ICAO>BIIS</ICAO>
        <city>Isafjordur</city>
        <latitude>66.058056</latitude>
        <longitude>-23.135278</longitude>
    </airport>
    <airport>
        <airportID>16</airportID>
        <IATA>KEF</IATA>
        <ICAO>BIKF</ICAO>
        <city>Keflavik</city>
        <latitude>63.985</latitude>
        <longitude>-22.605556</longitude>
    </airport>
    <airport>
        <airportID>17</airportID>
        <IATA>PFJ</IATA>
        <ICAO>BIPA</ICAO>
        <city>Patreksfjordur</city>
        <latitude>65.555833</latitude>
        <longitude>-23.965</longitude>
    </airport>
    <airport>
        <airportID>18</airportID>
        <IATA>RKV</IATA>
        <ICAO>BIRK</ICAO>
        <city>Reykjavik</city>
        <latitude>64.13</latitude>
        <longitude>-21.940556</longitude>
    </airport>
    <airport>
        <airportID>19</airportID>
        <IATA>SIJ</IATA>
        <ICAO>BISI</ICAO>
        <city>Siglufjordur</city>
        <latitude>66.133333</latitude>
        <longitude>-18.916667</longitude>
    </airport>
    <airport>
        <airportID>20</airportID>
        <IATA>VEY</IATA>
        <ICAO>BIVM</ICAO>
        <city>Vestmannaeyjar</city>
        <latitude>63.424303</latitude>
        <longitude>-20.278875</longitude>
    </airport>
    <airport>
        <airportID>21</airportID>
        <IATA>YAM</IATA>
        <ICAO>CYAM</ICAO>
        <city>Sault Sainte Marie</city>
        <latitude>46.485001</latitude>
        <longitude>-84.509445</longitude>
    </airport>
    <airport>
        <airportID>22</airportID>
        <IATA>YAV</IATA>
        <ICAO>CYAV</ICAO>
        <city>Winnipeg</city>
        <latitude>50.056389</latitude>
        <longitude>-97.0325</longitude>
    </airport>
    <airport>
        <airportID>23</airportID>
        <IATA>YAW</IATA>
        <ICAO>CYAW</ICAO>
        <city>Halifax</city>
        <latitude>44.639721</latitude>
        <longitude>-63.499444</longitude>
    </airport>
    <airport>
        <airportID>24</airportID>
        <IATA>YAY</IATA>
        <ICAO>CYAY</ICAO>
        <city>St. Anthony</city>
        <latitude>51.391944</latitude>
        <longitude>-56.083056</longitude>
    </airport>
    <airport>
        <airportID>25</airportID>
        <IATA>YAZ</IATA>
        <ICAO>CYAZ</ICAO>
        <city>Tofino</city>
        <latitude>49.082222</latitude>
        <longitude>-125.7725</longitude>
    </airport>
    <airport>
        <airportID>26</airportID>
        <IATA>YBB</IATA>
        <ICAO>CYBB</ICAO>
        <city>Pelly Bay</city>
        <latitude>68.534444</latitude>
        <longitude>-89.808056</longitude>
    </airport>
    <airport>
        <airportID>27</airportID>
        <IATA>YBC</IATA>
        <ICAO>CYBC</ICAO>
        <city>Baie Comeau</city>
        <latitude>49.1325</latitude>
        <longitude>-68.204444</longitude>
    </airport>
    <airport>
        <airportID>28</airportID>
        <IATA>YBG</IATA>
        <ICAO>CYBG</ICAO>
        <city>Bagotville</city>
        <latitude>48.330555</latitude>
        <longitude>-70.996391</longitude>
    </airport>
    <airport>
        <airportID>29</airportID>
        <IATA>YBK</IATA>
        <ICAO>CYBK</ICAO>
        <city>Baker Lake</city>
        <latitude>64.298889</latitude>
        <longitude>-96.077778</longitude>
    </airport>
    <airport>
        <airportID>30</airportID>
        <IATA>YBL</IATA>
        <ICAO>CYBL</ICAO>
        <city>Campbell River</city>
        <latitude>49.950832</latitude>
        <longitude>-125.270833</longitude>
    </airport>
    <airport>
        <airportID>31</airportID>
        <IATA>YBR</IATA>
        <ICAO>CYBR</ICAO>
        <city>Brandon</city>
        <latitude>49.91</latitude>
        <longitude>-99.951944</longitude>
    </airport>
    <airport>
        <airportID>32</airportID>
        <IATA>YCB</IATA>
        <ICAO>CYCB</ICAO>
        <city>Cambridge Bay</city>
        <latitude>69.108055</latitude>
        <longitude>-105.138333</longitude>
    </airport>
    <airport>
        <airportID>33</airportID>
        <IATA>YCD</IATA>
        <ICAO>CYCD</ICAO>
        <city>Nanaimo</city>
        <latitude>49.052333</latitude>
        <longitude>-123.870167</longitude>
    </airport>
    <airport>
        <airportID>34</airportID>
        <IATA>YCG</IATA>
        <ICAO>CYCG</ICAO>
        <city>Castlegar</city>
        <latitude>49.296389</latitude>
        <longitude>-117.6325</longitude>
    </airport>
    <airport>
        <airportID>35</airportID>
        <IATA>YCH</IATA>
        <ICAO>CYCH</ICAO>
        <city>Chatham</city>
        <latitude>47.007778</latitude>
        <longitude>-65.449167</longitude>
    </airport>
    <airport>
        <airportID>36</airportID>
        <IATA>YCL</IATA>
        <ICAO>CYCL</ICAO>
        <city>Charlo</city>
        <latitude>47.990833</latitude>
        <longitude>-66.330278</longitude>
    </airport>
    <airport>
        <airportID>37</airportID>
        <IATA>YCO</IATA>
        <ICAO>CYCO</ICAO>
        <city>Coppermine</city>
        <latitude>67.816667</latitude>
        <longitude>-115.143889</longitude>
    </airport>
    <airport>
        <airportID>38</airportID>
        <IATA>YCT</IATA>
        <ICAO>CYCT</ICAO>
        <city>Coronation</city>
        <latitude>52.075001</latitude>
        <longitude>-111.445278</longitude>
    </airport>
    <airport>
        <airportID>39</airportID>
        <IATA>YCW</IATA>
        <ICAO>CYCW</ICAO>
        <city>Chilliwack</city>
        <latitude>49.152779</latitude>
        <longitude>-121.93889</longitude>
    </airport>
    <airport>
        <airportID>40</airportID>
        <IATA>YCY</IATA>
        <ICAO>CYCY</ICAO>
        <city>Clyde River</city>
        <latitude>70.486111</latitude>
        <longitude>-68.516667</longitude>
    </airport>
    <airport>
        <airportID>41</airportID>
        <IATA>YZS</IATA>
        <ICAO>CYCZ</ICAO>
        <city>Coral Harbour</city>
        <latitude>64.193333</latitude>
        <longitude>-83.359444</longitude>
    </airport>
    <airport>
        <airportID>42</airportID>
        <IATA>YDA</IATA>
        <ICAO>CYDA</ICAO>
        <city>Dawson</city>
        <latitude>64.043056</latitude>
        <longitude>-139.127778</longitude>
    </airport>
    <airport>
        <airportID>43</airportID>
        <IATA>YDB</IATA>
        <ICAO>CYDB</ICAO>
        <city>Burwash</city>
        <latitude>61.371111</latitude>
        <longitude>-139.040556</longitude>
    </airport>
    <airport>
        <airportID>44</airportID>
        <IATA>YDC</IATA>
        <ICAO>CYDC</ICAO>
        <city>Princeton</city>
        <latitude>49.468056</latitude>
        <longitude>-120.511389</longitude>
    </airport>
    <airport>
        <airportID>45</airportID>
        <IATA>YDF</IATA>
        <ICAO>CYDF</ICAO>
        <city>Deer Lake</city>
        <latitude>49.210833</latitude>
        <longitude>-57.391388</longitude>
    </airport>
    <airport>
        <airportID>46</airportID>
        <IATA>YDL</IATA>
        <ICAO>CYDL</ICAO>
        <city>Dease Lake</city>
        <latitude>58.422222</latitude>
        <longitude>-130.032222</longitude>
    </airport>
    <airport>
        <airportID>47</airportID>
        <IATA>YDN</IATA>
        <ICAO>CYDN</ICAO>
        <city>Dauphin</city>
        <latitude>51.100834</latitude>
        <longitude>-100.0525</longitude>
    </airport>
    <airport>
        <airportID>48</airportID>
        <IATA>YDQ</IATA>
        <ICAO>CYDQ</ICAO>
        <city>Dawson Creek</city>
        <latitude>55.742333</latitude>
        <longitude>-120.183</longitude>
    </airport>
    <airport>
        <airportID>49</airportID>
        <IATA>YEG</IATA>
        <ICAO>CYEG</ICAO>
        <city>Edmonton</city>
        <latitude>53.309723</latitude>
        <longitude>-113.579722</longitude>
    </airport>
    <airport>
        <airportID>50</airportID>
        <IATA>YEK</IATA>
        <ICAO>CYEK</ICAO>
        <city>Eskimo Point</city>
        <latitude>61.094166</latitude>
        <longitude>-94.070833</longitude>
    </airport>
    <airport>
        <airportID>51</airportID>
        <IATA>YEN</IATA>
        <ICAO>CYEN</ICAO>
        <city>Estevan</city>
        <latitude>49.210278</latitude>
        <longitude>-102.965833</longitude>
    </airport>
    <airport>
        <airportID>52</airportID>
        <IATA>YET</IATA>
        <ICAO>CYET</ICAO>
        <city>Edson</city>
        <latitude>53.578888</latitude>
        <longitude>-116.465</longitude>
    </airport>
    <airport>
        <airportID>53</airportID>
        <IATA>YEU</IATA>
        <ICAO>CYEU</ICAO>
        <city>Eureka</city>
        <latitude>79.994722</latitude>
        <longitude>-85.814167</longitude>
    </airport>
    <airport>
        <airportID>54</airportID>
        <IATA>YEV</IATA>
        <ICAO>CYEV</ICAO>
        <city>Inuvik</city>
        <latitude>68.304167</latitude>
        <longitude>-133.482778</longitude>
    </airport>
    <airport>
        <airportID>55</airportID>
        <IATA>YFB</IATA>
        <ICAO>CYFB</ICAO>
        <city>Iqaluit</city>
        <latitude>63.75639</latitude>
        <longitude>-68.555832</longitude>
    </airport>
    <airport>
        <airportID>56</airportID>
        <IATA>YFC</IATA>
        <ICAO>CYFC</ICAO>
        <city>Fredericton</city>
        <latitude>45.868889</latitude>
        <longitude>-66.537222</longitude>
    </airport>
    <airport>
        <airportID>57</airportID>
        <IATA>NO</IATA>
        <ICAO>CYFE</ICAO>
        <city>Forestville</city>
        <latitude>48.746111</latitude>
        <longitude>-69.097222</longitude>
    </airport>
    <airport>
        <airportID>58</airportID>
        <IATA>YFO</IATA>
        <ICAO>CYFO</ICAO>
        <city>Flin Flon</city>
        <latitude>54.678055</latitude>
        <longitude>-101.681667</longitude>
    </airport>
    <airport>
        <airportID>59</airportID>
        <IATA>YFR</IATA>
        <ICAO>CYFR</ICAO>
        <city>Fort Resolution</city>
        <latitude>61.180832</latitude>
        <longitude>-113.689722</longitude>
    </airport>
    <airport>
        <airportID>60</airportID>
        <IATA>YFS</IATA>
        <ICAO>CYFS</ICAO>
        <city>Fort Simpson</city>
        <latitude>61.760153</latitude>
        <longitude>-121.236525</longitude>
    </airport>
    <airport>
        <airportID>61</airportID>
        <IATA>YGK</IATA>
        <ICAO>CYGK</ICAO>
        <city>Kingston</city>
        <latitude>44.225277</latitude>
        <longitude>-76.596944</longitude>
    </airport>
    <airport>
        <airportID>62</airportID>
        <IATA>YGL</IATA>
        <ICAO>CYGL</ICAO>
        <city>La Grande Riviere</city>
        <latitude>53.625278</latitude>
        <longitude>-77.704167</longitude>
    </airport>
    <airport>
        <airportID>63</airportID>
        <IATA>YGP</IATA>
        <ICAO>CYGP</ICAO>
        <city>Gaspe</city>
        <latitude>48.775278</latitude>
        <longitude>-64.478611</longitude>
    </airport>
    <airport>
        <airportID>64</airportID>
        <IATA>YGQ</IATA>
        <ICAO>CYGQ</ICAO>
        <city>Geraldton</city>
        <latitude>49.778332</latitude>
        <longitude>-86.939445</longitude>
    </airport>
    <airport>
        <airportID>65</airportID>
        <IATA>YGR</IATA>
        <ICAO>CYGR</ICAO>
        <city>Iles De La Madeleine</city>
        <latitude>47.424721</latitude>
        <longitude>-61.778056</longitude>
    </airport>
    <airport>
        <airportID>66</airportID>
        <IATA>YHB</IATA>
        <ICAO>CYHB</ICAO>
        <city>Hudson Bay</city>
        <latitude>52.816666</latitude>
        <longitude>-102.31139</longitude>
    </airport>
    <airport>
        <airportID>67</airportID>
        <IATA>YHD</IATA>
        <ICAO>CYHD</ICAO>
        <city>Dryden</city>
        <latitude>49.831667</latitude>
        <longitude>-92.744167</longitude>
    </airport>
    <airport>
        <airportID>68</airportID>
        <IATA>YHI</IATA>
        <ICAO>CYHI</ICAO>
        <city>Holman Island</city>
        <latitude>70.762778</latitude>
        <longitude>-117.806111</longitude>
    </airport>
    <airport>
        <airportID>69</airportID>
        <IATA>YHK</IATA>
        <ICAO>CYHK</ICAO>
        <city>Gjoa Haven</city>
        <latitude>68.635556</latitude>
        <longitude>-95.849722</longitude>
    </airport>
    <airport>
        <airportID>70</airportID>
        <IATA>YHM</IATA>
        <ICAO>CYHM</ICAO>
        <city>Hamilton</city>
        <latitude>43.173611</latitude>
        <longitude>-79.935</longitude>
    </airport>
    <airport>
        <airportID>71</airportID>
        <IATA>YHU</IATA>
        <ICAO>CYHU</ICAO>
        <city>Montreal</city>
        <latitude>45.5175</latitude>
        <longitude>-73.416944</longitude>
    </airport>
    <airport>
        <airportID>72</airportID>
        <IATA>YHY</IATA>
        <ICAO>CYHY</ICAO>
        <city>Hay River</city>
        <latitude>60.839722</latitude>
        <longitude>-115.782778</longitude>
    </airport>
    <airport>
        <airportID>73</airportID>
        <IATA>YHZ</IATA>
        <ICAO>CYHZ</ICAO>
        <city>Halifax</city>
        <latitude>44.880833</latitude>
        <longitude>-63.50861</longitude>
    </airport>
    <airport>
        <airportID>74</airportID>
        <IATA>YIB</IATA>
        <ICAO>CYIB</ICAO>
        <city>Atikokan</city>
        <latitude>48.773888</latitude>
        <longitude>-91.638611</longitude>
    </airport>
    <airport>
        <airportID>75</airportID>
        <IATA>YIO</IATA>
        <ICAO>CYIO</ICAO>
        <city>Pond Inlet</city>
        <latitude>72.683334</latitude>
        <longitude>-77.966667</longitude>
    </airport>
    <airport>
        <airportID>76</airportID>
        <IATA>YJN</IATA>
        <ICAO>CYJN</ICAO>
        <city>St. Jean</city>
        <latitude>45.294445</latitude>
        <longitude>-73.281111</longitude>
    </airport>
    <airport>
        <airportID>77</airportID>
        <IATA>YJT</IATA>
        <ICAO>CYJT</ICAO>
        <city>Stephenville</city>
        <latitude>48.544167</latitude>
        <longitude>-58.549999</longitude>
    </airport>
    <airport>
        <airportID>78</airportID>
        <IATA>YKA</IATA>
        <ICAO>CYKA</ICAO>
        <city>Kamloops</city>
        <latitude>50.702222</latitude>
        <longitude>-120.444444</longitude>
    </airport>
    <airport>
        <airportID>79</airportID>
        <IATA>YKF</IATA>
        <ICAO>CYKF</ICAO>
        <city>Waterloo</city>
        <latitude>43.460833</latitude>
        <longitude>-80.378611</longitude>
    </airport>
    <airport>
        <airportID>80</airportID>
        <IATA>YKL</IATA>
        <ICAO>CYKL</ICAO>
        <city>Schefferville</city>
        <latitude>54.805278</latitude>
        <longitude>-66.805278</longitude>
    </airport>
    <airport>
        <airportID>81</airportID>
        <IATA>YKY</IATA>
        <ICAO>CYKY</ICAO>
        <city>Kindersley</city>
        <latitude>51.5175</latitude>
        <longitude>-109.180833</longitude>
    </airport>
    <airport>
        <airportID>82</airportID>
        <IATA>YKZ</IATA>
        <ICAO>CYKZ</ICAO>
        <city>Toronto</city>
        <latitude>43.862221</latitude>
        <longitude>-79.37</longitude>
    </airport>
    <airport>
        <airportID>83</airportID>
        <IATA>YLD</IATA>
        <ICAO>CYLD</ICAO>
        <city>Chapleau</city>
        <latitude>47.82</latitude>
        <longitude>-83.346667</longitude>
    </airport>
    <airport>
        <airportID>84</airportID>
        <IATA>YLJ</IATA>
        <ICAO>CYLJ</ICAO>
        <city>Meadow Lake</city>
        <latitude>54.125278</latitude>
        <longitude>-108.522778</longitude>
    </airport>
    <airport>
        <airportID>85</airportID>
        <IATA>YLL</IATA>
        <ICAO>CYLL</ICAO>
        <city>Lloydminster</city>
        <latitude>53.309166</latitude>
        <longitude>-110.0725</longitude>
    </airport>
    <airport>
        <airportID>86</airportID>
        <IATA>YLT</IATA>
        <ICAO>CYLT</ICAO>
        <city>Alert</city>
        <latitude>82.517778</latitude>
        <longitude>-62.280556</longitude>
    </airport>
    <airport>
        <airportID>87</airportID>
        <IATA>YLW</IATA>
        <ICAO>CYLW</ICAO>
        <city>Kelowna</city>
        <latitude>49.956112</latitude>
        <longitude>-119.377778</longitude>
    </airport>
    <airport>
        <airportID>88</airportID>
        <IATA>YMA</IATA>
        <ICAO>CYMA</ICAO>
        <city>Mayo</city>
        <latitude>63.616389</latitude>
        <longitude>-135.868333</longitude>
    </airport>
    <airport>
        <airportID>89</airportID>
        <IATA>YMJ</IATA>
        <ICAO>CYMJ</ICAO>
        <city>Moose Jaw</city>
        <latitude>50.330278</latitude>
        <longitude>-105.559167</longitude>
    </airport>
    <airport>
        <airportID>90</airportID>
        <IATA>YMM</IATA>
        <ICAO>CYMM</ICAO>
        <city>Fort Mcmurray</city>
        <latitude>56.653333</latitude>
        <longitude>-111.221944</longitude>
    </airport>
    <airport>
        <airportID>91</airportID>
        <IATA>YMO</IATA>
        <ICAO>CYMO</ICAO>
        <city>Moosonee</city>
        <latitude>51.291111</latitude>
        <longitude>-80.607778</longitude>
    </airport>
    <airport>
        <airportID>92</airportID>
        <IATA>YMW</IATA>
        <ICAO>CYMW</ICAO>
        <city>Maniwaki</city>
        <latitude>46.272778</latitude>
        <longitude>-75.990556</longitude>
    </airport>
    <airport>
        <airportID>93</airportID>
        <IATA>YMX</IATA>
        <ICAO>CYMX</ICAO>
        <city>Montreal</city>
        <latitude>45.681944</latitude>
        <longitude>-74.005278</longitude>
    </airport>
    <airport>
        <airportID>94</airportID>
        <IATA>YNA</IATA>
        <ICAO>CYNA</ICAO>
        <city>Natashquan</city>
        <latitude>50.19</latitude>
        <longitude>-61.789167</longitude>
    </airport>
    <airport>
        <airportID>95</airportID>
        <IATA>YND</IATA>
        <ICAO>CYND</ICAO>
        <city>Gatineau</city>
        <latitude>45.521694</latitude>
        <longitude>-75.563589</longitude>
    </airport>
    <airport>
        <airportID>96</airportID>
        <IATA>YNM</IATA>
        <ICAO>CYNM</ICAO>
        <city>Matagami</city>
        <latitude>49.761667</latitude>
        <longitude>-77.802778</longitude>
    </airport>
    <airport>
        <airportID>97</airportID>
        <IATA>YOC</IATA>
        <ICAO>CYOC</ICAO>
        <city>Old Crow</city>
        <latitude>67.570556</latitude>
        <longitude>-139.839167</longitude>
    </airport>
    <airport>
        <airportID>98</airportID>
        <IATA>YOD</IATA>
        <ICAO>CYOD</ICAO>
        <city>Cold Lake</city>
        <latitude>54.404999</latitude>
        <longitude>-110.279444</longitude>
    </airport>
    <airport>
        <airportID>99</airportID>
        <IATA>YOJ</IATA>
        <ICAO>CYOJ</ICAO>
        <city>High Level</city>
        <latitude>58.621389</latitude>
        <longitude>-117.164722</longitude>
    </airport>
    <airport>
        <airportID>100</airportID>
        <IATA>YOW</IATA>
        <ICAO>CYOW</ICAO>
        <city>Ottawa</city>
        <latitude>45.3225</latitude>
        <longitude>-75.669167</longitude>
    </airport>
    <airport>
        <airportID>101</airportID>
        <IATA>YPA</IATA>
        <ICAO>CYPA</ICAO>
        <city>Prince Albert</city>
        <latitude>53.214167</latitude>
        <longitude>-105.672778</longitude>
    </airport>
    <airport>
        <airportID>102</airportID>
        <IATA>YPE</IATA>
        <ICAO>CYPE</ICAO>
        <city>Peace River</city>
        <latitude>56.226944</latitude>
        <longitude>-117.447222</longitude>
    </airport>
    <airport>
        <airportID>103</airportID>
        <IATA>YPG</IATA>
        <ICAO>CYPG</ICAO>
        <city>Portage-la-prairie</city>
        <latitude>49.903056</latitude>
        <longitude>-98.273889</longitude>
    </airport>
    <airport>
        <airportID>104</airportID>
        <IATA>NO</IATA>
        <ICAO>CYPK</ICAO>
        <city>Pitt Meadows</city>
        <latitude>49.21611</latitude>
        <longitude>-122.71</longitude>
    </airport>
    <airport>
        <airportID>105</airportID>
        <IATA>YPL</IATA>
        <ICAO>CYPL</ICAO>
        <city>Pickle Lake</city>
        <latitude>51.446388</latitude>
        <longitude>-90.214167</longitude>
    </airport>
    <airport>
        <airportID>106</airportID>
        <IATA>YPN</IATA>
        <ICAO>CYPN</ICAO>
        <city>Port Menier</city>
        <latitude>49.836389</latitude>
        <longitude>-64.288611</longitude>
    </airport>
    <airport>
        <airportID>107</airportID>
        <IATA>YPQ</IATA>
        <ICAO>CYPQ</ICAO>
        <city>Peterborough</city>
        <latitude>44.23</latitude>
        <longitude>-78.363333</longitude>
    </airport>
    <airport>
        <airportID>108</airportID>
        <IATA>YPR</IATA>
        <ICAO>CYPR</ICAO>
        <city>Prince Pupert</city>
        <latitude>54.28611</latitude>
        <longitude>-130.444722</longitude>
    </airport>
    <airport>
        <airportID>109</airportID>
        <IATA>YPY</IATA>
        <ICAO>CYPY</ICAO>
        <city>Fort Chipewyan</city>
        <latitude>58.767223</latitude>
        <longitude>-111.117222</longitude>
    </airport>
    <airport>
        <airportID>110</airportID>
        <IATA>YQA</IATA>
        <ICAO>CYQA</ICAO>
        <city>Muskoka</city>
        <latitude>44.974722</latitude>
        <longitude>-79.303333</longitude>
    </airport>
    <airport>
        <airportID>111</airportID>
        <IATA>YQB</IATA>
        <ICAO>CYQB</ICAO>
        <city>Quebec</city>
        <latitude>46.791111</latitude>
        <longitude>-71.393333</longitude>
    </airport>
    <airport>
        <airportID>112</airportID>
        <IATA>YQF</IATA>
        <ICAO>CYQF</ICAO>
        <city>Red Deer Industrial</city>
        <latitude>52.182222</latitude>
        <longitude>-113.894444</longitude>
    </airport>
    <airport>
        <airportID>113</airportID>
        <IATA>YQG</IATA>
        <ICAO>CYQG</ICAO>
        <city>Windsor</city>
        <latitude>42.275556</latitude>
        <longitude>-82.955556</longitude>
    </airport>
    <airport>
        <airportID>114</airportID>
        <IATA>YQH</IATA>
        <ICAO>CYQH</ICAO>
        <city>Watson Lake</city>
        <latitude>60.116389</latitude>
        <longitude>-128.8225</longitude>
    </airport>
    <airport>
        <airportID>115</airportID>
        <IATA>YQK</IATA>
        <ICAO>CYQK</ICAO>
        <city>Kenora</city>
        <latitude>49.788334</latitude>
        <longitude>-94.363056</longitude>
    </airport>
    <airport>
        <airportID>116</airportID>
        <IATA>YQL</IATA>
        <ICAO>CYQL</ICAO>
        <city>Lethbridge</city>
        <latitude>49.630278</latitude>
        <longitude>-112.799722</longitude>
    </airport>
    <airport>
        <airportID>117</airportID>
        <IATA>YQM</IATA>
        <ICAO>CYQM</ICAO>
        <city>Moncton</city>
        <latitude>46.112221</latitude>
        <longitude>-64.678611</longitude>
    </airport>
    <airport>
        <airportID>119</airportID>
        <IATA>YQQ</IATA>
        <ICAO>CYQQ</ICAO>
        <city>Comox</city>
        <latitude>49.710833</latitude>
        <longitude>-124.886667</longitude>
    </airport>
    <airport>
        <airportID>120</airportID>
        <IATA>YQR</IATA>
        <ICAO>CYQR</ICAO>
        <city>Regina</city>
        <latitude>50.431944</latitude>
        <longitude>-104.665833</longitude>
    </airport>
    <airport>
        <airportID>121</airportID>
        <IATA>YQT</IATA>
        <ICAO>CYQT</ICAO>
        <city>Thunder Bay</city>
        <latitude>48.371944</latitude>
        <longitude>-89.323889</longitude>
    </airport>
    <airport>
        <airportID>122</airportID>
        <IATA>YQU</IATA>
        <ICAO>CYQU</ICAO>
        <city>Grande Prairie</city>
        <latitude>55.179722</latitude>
        <longitude>-118.885</longitude>
    </airport>
    <airport>
        <airportID>123</airportID>
        <IATA>YQV</IATA>
        <ICAO>CYQV</ICAO>
        <city>Yorkton</city>
        <latitude>51.264721</latitude>
        <longitude>-102.461667</longitude>
    </airport>
    <airport>
        <airportID>124</airportID>
        <IATA>YQW</IATA>
        <ICAO>CYQW</ICAO>
        <city>North Battleford</city>
        <latitude>52.769167</latitude>
        <longitude>-108.24361</longitude>
    </airport>
    <airport>
        <airportID>125</airportID>
        <IATA>YQX</IATA>
        <ICAO>CYQX</ICAO>
        <city>Gander</city>
        <latitude>48.936944</latitude>
        <longitude>-54.568056</longitude>
    </airport>
    <airport>
        <airportID>126</airportID>
        <IATA>YQY</IATA>
        <ICAO>CYQY</ICAO>
        <city>Sydney</city>
        <latitude>46.161388</latitude>
        <longitude>-60.047779</longitude>
    </airport>
    <airport>
        <airportID>127</airportID>
        <IATA>YQZ</IATA>
        <ICAO>CYQZ</ICAO>
        <city>Quesnel</city>
        <latitude>53.026112</latitude>
        <longitude>-122.510278</longitude>
    </airport>
    <airport>
        <airportID>128</airportID>
        <IATA>YRB</IATA>
        <ICAO>CYRB</ICAO>
        <city>Resolute</city>
        <latitude>74.716944</latitude>
        <longitude>-94.969444</longitude>
    </airport>
    <airport>
        <airportID>129</airportID>
        <IATA>YRI</IATA>
        <ICAO>CYRI</ICAO>
        <city>Riviere Du Loup</city>
        <latitude>47.764444</latitude>
        <longitude>-69.584722</longitude>
    </airport>
    <airport>
        <airportID>130</airportID>
        <IATA>YRJ</IATA>
        <ICAO>CYRJ</ICAO>
        <city>Roberval</city>
        <latitude>48.52</latitude>
        <longitude>-72.265556</longitude>
    </airport>
    <airport>
        <airportID>131</airportID>
        <IATA>YRM</IATA>
        <ICAO>CYRM</ICAO>
        <city>Rocky Mountain House</city>
        <latitude>52.429722</latitude>
        <longitude>-114.904167</longitude>
    </airport>
    <airport>
        <airportID>132</airportID>
        <IATA>YRT</IATA>
        <ICAO>CYRT</ICAO>
        <city>Rankin Inlet</city>
        <latitude>62.81139</latitude>
        <longitude>-92.115833</longitude>
    </airport>
    <airport>
        <airportID>133</airportID>
        <IATA>YSB</IATA>
        <ICAO>CYSB</ICAO>
        <city>Sudbury</city>
        <latitude>46.625</latitude>
        <longitude>-80.798889</longitude>
    </airport>
    <airport>
        <airportID>134</airportID>
        <IATA>YSC</IATA>
        <ICAO>CYSC</ICAO>
        <city>Sherbrooke</city>
        <latitude>45.438611</latitude>
        <longitude>-71.691389</longitude>
    </airport>
    <airport>
        <airportID>135</airportID>
        <IATA>YSJ</IATA>
        <ICAO>CYSJ</ICAO>
        <city>St. John</city>
        <latitude>45.316111</latitude>
        <longitude>-65.890278</longitude>
    </airport>
    <airport>
        <airportID>136</airportID>
        <IATA>YSM</IATA>
        <ICAO>CYSM</ICAO>
        <city>Fort Smith</city>
        <latitude>60.020278</latitude>
        <longitude>-111.961944</longitude>
    </airport>
    <airport>
        <airportID>137</airportID>
        <IATA>YSR</IATA>
        <ICAO>CYSR</ICAO>
        <city>Nanisivik</city>
        <latitude>72.982222</latitude>
        <longitude>-84.613611</longitude>
    </airport>
    <airport>
        <airportID>138</airportID>
        <IATA>YSU</IATA>
        <ICAO>CYSU</ICAO>
        <city>Summerside</city>
        <latitude>46.440556</latitude>
        <longitude>-63.833611</longitude>
    </airport>
    <airport>
        <airportID>139</airportID>
        <IATA>YSY</IATA>
        <ICAO>CYSY</ICAO>
        <city>Sachs Harbour</city>
        <latitude>71.993889</latitude>
        <longitude>-125.2425</longitude>
    </airport>
    <airport>
        <airportID>140</airportID>
        <IATA>YTE</IATA>
        <ICAO>CYTE</ICAO>
        <city>Cape Dorset</city>
        <latitude>64.23</latitude>
        <longitude>-76.526667</longitude>
    </airport>
    <airport>
        <airportID>141</airportID>
        <IATA>YTH</IATA>
        <ICAO>CYTH</ICAO>
        <city>Thompson</city>
        <latitude>55.801111</latitude>
        <longitude>-97.864166</longitude>
    </airport>
    <airport>
        <airportID>142</airportID>
        <IATA>YTR</IATA>
        <ICAO>CYTR</ICAO>
        <city>Trenton</city>
        <latitude>44.118889</latitude>
        <longitude>-77.528056</longitude>
    </airport>
    <airport>
        <airportID>143</airportID>
        <IATA>YTS</IATA>
        <ICAO>CYTS</ICAO>
        <city>Timmins</city>
        <latitude>48.569721</latitude>
        <longitude>-81.376667</longitude>
    </airport>
    <airport>
        <airportID>144</airportID>
        <IATA>YTZ</IATA>
        <ICAO>CYTZ</ICAO>
        <city>Toronto</city>
        <latitude>43.627499</latitude>
        <longitude>-79.396167</longitude>
    </airport>
    <airport>
        <airportID>145</airportID>
        <IATA>YUB</IATA>
        <ICAO>CYUB</ICAO>
        <city>Tuktoyaktuk</city>
        <latitude>69.433334</latitude>
        <longitude>-133.026389</longitude>
    </airport>
    <airport>
        <airportID>146</airportID>
        <IATA>YUL</IATA>
        <ICAO>CYUL</ICAO>
        <city>Montreal</city>
        <latitude>45.470556</latitude>
        <longitude>-73.740833</longitude>
    </airport>
    <airport>
        <airportID>147</airportID>
        <IATA>YUT</IATA>
        <ICAO>CYUT</ICAO>
        <city>Repulse Bay</city>
        <latitude>66.521389</latitude>
        <longitude>-86.224722</longitude>
    </airport>
    <airport>
        <airportID>148</airportID>
        <IATA>YUX</IATA>
        <ICAO>CYUX</ICAO>
        <city>Hall Beach</city>
        <latitude>68.776111</latitude>
        <longitude>-81.243611</longitude>
    </airport>
    <airport>
        <airportID>149</airportID>
        <IATA>YUY</IATA>
        <ICAO>CYUY</ICAO>
        <city>Rouyn</city>
        <latitude>48.206111</latitude>
        <longitude>-78.835556</longitude>
    </airport>
    <airport>
        <airportID>150</airportID>
        <IATA>YVC</IATA>
        <ICAO>CYVC</ICAO>
        <city>La Ronge</city>
        <latitude>55.15139</latitude>
        <longitude>-105.261944</longitude>
    </airport>
    <airport>
        <airportID>151</airportID>
        <IATA>YVG</IATA>
        <ICAO>CYVG</ICAO>
        <city>Vermillion</city>
        <latitude>53.355833</latitude>
        <longitude>-110.82389</longitude>
    </airport>
    <airport>
        <airportID>152</airportID>
        <IATA>YVM</IATA>
        <ICAO>CYVM</ICAO>
        <city>Broughton Island</city>
        <latitude>67.545833</latitude>
        <longitude>-64.031389</longitude>
    </airport>
    <airport>
        <airportID>153</airportID>
        <IATA>YVO</IATA>
        <ICAO>CYVO</ICAO>
        <city>Val D'or</city>
        <latitude>48.053333</latitude>
        <longitude>-77.782778</longitude>
    </airport>
    <airport>
        <airportID>154</airportID>
        <IATA>YVP</IATA>
        <ICAO>CYVP</ICAO>
        <city>Quujjuaq</city>
        <latitude>58.096111</latitude>
        <longitude>-68.426944</longitude>
    </airport>
    <airport>
        <airportID>155</airportID>
        <IATA>YVQ</IATA>
        <ICAO>CYVQ</ICAO>
        <city>Norman Wells</city>
        <latitude>65.281617</latitude>
        <longitude>-126.798219</longitude>
    </airport>
    <airport>
        <airportID>156</airportID>
        <IATA>YVR</IATA>
        <ICAO>CYVR</ICAO>
        <city>Vancouver</city>
        <latitude>49.193889</latitude>
        <longitude>-123.184444</longitude>
    </airport>
    <airport>
        <airportID>157</airportID>
        <IATA>YVT</IATA>
        <ICAO>CYVT</ICAO>
        <city>Buffalo Narrows</city>
        <latitude>55.841944</latitude>
        <longitude>-108.4175</longitude>
    </airport>
    <airport>
        <airportID>158</airportID>
        <IATA>YVV</IATA>
        <ICAO>CYVV</ICAO>
        <city>Wiarton</city>
        <latitude>44.745834</latitude>
        <longitude>-81.107222</longitude>
    </airport>
    <airport>
        <airportID>159</airportID>
        <IATA>YWA</IATA>
        <ICAO>CYWA</ICAO>
        <city>Petawawa</city>
        <latitude>45.952221</latitude>
        <longitude>-77.319168</longitude>
    </airport>
    <airport>
        <airportID>160</airportID>
        <IATA>YWG</IATA>
        <ICAO>CYWG</ICAO>
        <city>Winnipeg</city>
        <latitude>49.910036</latitude>
        <longitude>-97.239886</longitude>
    </airport>
    <airport>
        <airportID>161</airportID>
        <IATA>YWK</IATA>
        <ICAO>CYWK</ICAO>
        <city>Wabush</city>
        <latitude>52.921944</latitude>
        <longitude>-66.864444</longitude>
    </airport>
    <airport>
        <airportID>162</airportID>
        <IATA>YWL</IATA>
        <ICAO>CYWL</ICAO>
        <city>Williams Lake</city>
        <latitude>52.183056</latitude>
        <longitude>-122.054167</longitude>
    </airport>
    <airport>
        <airportID>163</airportID>
        <IATA>YWY</IATA>
        <ICAO>CYWY</ICAO>
        <city>Wrigley</city>
        <latitude>63.209444</latitude>
        <longitude>-123.436667</longitude>
    </airport>
    <airport>
        <airportID>164</airportID>
        <IATA>YXC</IATA>
        <ICAO>CYXC</ICAO>
        <city>Cranbrook</city>
        <latitude>49.612222</latitude>
        <longitude>-115.781944</longitude>
    </airport>
    <airport>
        <airportID>165</airportID>
        <IATA>YXD</IATA>
        <ICAO>CYXD</ICAO>
        <city>Edmonton</city>
        <latitude>53.5725</latitude>
        <longitude>-113.520556</longitude>
    </airport>
    <airport>
        <airportID>166</airportID>
        <IATA>YXE</IATA>
        <ICAO>CYXE</ICAO>
        <city>Saskatoon</city>
        <latitude>52.170834</latitude>
        <longitude>-106.699722</longitude>
    </airport>
    <airport>
        <airportID>167</airportID>
        <IATA>YXH</IATA>
        <ICAO>CYXH</ICAO>
        <city>Medicine Hat</city>
        <latitude>50.01889</latitude>
        <longitude>-110.720833</longitude>
    </airport>
    <airport>
        <airportID>168</airportID>
        <IATA>YXJ</IATA>
        <ICAO>CYXJ</ICAO>
        <city>Fort Saint John</city>
        <latitude>56.238056</latitude>
        <longitude>-120.740278</longitude>
    </airport>
    <airport>
        <airportID>169</airportID>
        <IATA>YXL</IATA>
        <ICAO>CYXL</ICAO>
        <city>Sioux Lookout</city>
        <latitude>50.113889</latitude>
        <longitude>-91.905278</longitude>
    </airport>
    <airport>
        <airportID>170</airportID>
        <IATA>YXP</IATA>
        <ICAO>CYXP</ICAO>
        <city>Pangnirtung</city>
        <latitude>66.145</latitude>
        <longitude>-65.713611</longitude>
    </airport>
    <airport>
        <airportID>171</airportID>
        <IATA>YXR</IATA>
        <ICAO>CYXR</ICAO>
        <city>Earlton</city>
        <latitude>47.695</latitude>
        <longitude>-79.848889</longitude>
    </airport>
    <airport>
        <airportID>172</airportID>
        <IATA>YXS</IATA>
        <ICAO>CYXS</ICAO>
        <city>Prince George</city>
        <latitude>53.889444</latitude>
        <longitude>-122.678889</longitude>
    </airport>
    <airport>
        <airportID>173</airportID>
        <IATA>YXT</IATA>
        <ICAO>CYXT</ICAO>
        <city>Terrace</city>
        <latitude>54.468508</latitude>
        <longitude>-128.576219</longitude>
    </airport>
    <airport>
        <airportID>174</airportID>
        <IATA>YXU</IATA>
        <ICAO>CYXU</ICAO>
        <city>London</city>
        <latitude>43.033056</latitude>
        <longitude>-81.151111</longitude>
    </airport>
    <airport>
        <airportID>175</airportID>
        <IATA>YXX</IATA>
        <ICAO>CYXX</ICAO>
        <city>Abbotsford</city>
        <latitude>49.025278</latitude>
        <longitude>-122.360556</longitude>
    </airport>
    <airport>
        <airportID>176</airportID>
        <IATA>YXY</IATA>
        <ICAO>CYXY</ICAO>
        <city>Whitehorse</city>
        <latitude>60.709553</latitude>
        <longitude>-135.067269</longitude>
    </airport>
    <airport>
        <airportID>177</airportID>
        <IATA>YYB</IATA>
        <ICAO>CYYB</ICAO>
        <city>North Bay</city>
        <latitude>46.363611</latitude>
        <longitude>-79.422778</longitude>
    </airport>
    <airport>
        <airportID>178</airportID>
        <IATA>YYC</IATA>
        <ICAO>CYYC</ICAO>
        <city>Calgary</city>
        <latitude>51.113888</latitude>
        <longitude>-114.020278</longitude>
    </airport>
    <airport>
        <airportID>179</airportID>
        <IATA>YYD</IATA>
        <ICAO>CYYD</ICAO>
        <city>Smithers</city>
        <latitude>54.824722</latitude>
        <longitude>-127.182778</longitude>
    </airport>
    <airport>
        <airportID>180</airportID>
        <IATA>YYE</IATA>
        <ICAO>CYYE</ICAO>
        <city>Fort Nelson</city>
        <latitude>58.836389</latitude>
        <longitude>-122.596944</longitude>
    </airport>
    <airport>
        <airportID>181</airportID>
        <IATA>YYF</IATA>
        <ICAO>CYYF</ICAO>
        <city>Penticton</city>
        <latitude>49.463056</latitude>
        <longitude>-119.602222</longitude>
    </airport>
    <airport>
        <airportID>182</airportID>
        <IATA>YYG</IATA>
        <ICAO>CYYG</ICAO>
        <city>Charlottetown</city>
        <latitude>46.290001</latitude>
        <longitude>-63.121111</longitude>
    </airport>
    <airport>
        <airportID>183</airportID>
        <IATA>YYH</IATA>
        <ICAO>CYYH</ICAO>
        <city>Spence Bay</city>
        <latitude>69.546667</latitude>
        <longitude>-93.576667</longitude>
    </airport>
    <airport>
        <airportID>184</airportID>
        <IATA>YYJ</IATA>
        <ICAO>CYYJ</ICAO>
        <city>Victoria</city>
        <latitude>48.646944</latitude>
        <longitude>-123.425833</longitude>
    </airport>
    <airport>
        <airportID>185</airportID>
        <IATA>YYL</IATA>
        <ICAO>CYYL</ICAO>
        <city>Lynn Lake</city>
        <latitude>56.863888</latitude>
        <longitude>-101.07611</longitude>
    </airport>
    <airport>
        <airportID>186</airportID>
        <IATA>YYN</IATA>
        <ICAO>CYYN</ICAO>
        <city>Swift Current</city>
        <latitude>50.291944</latitude>
        <longitude>-107.690556</longitude>
    </airport>
    <airport>
        <airportID>187</airportID>
        <IATA>YYQ</IATA>
        <ICAO>CYYQ</ICAO>
        <city>Churchill</city>
        <latitude>58.739167</latitude>
        <longitude>-94.065</longitude>
    </airport>
    <airport>
        <airportID>188</airportID>
        <IATA>YYR</IATA>
        <ICAO>CYYR</ICAO>
        <city>Goose Bay</city>
        <latitude>53.319168</latitude>
        <longitude>-60.425833</longitude>
    </airport>
    <airport>
        <airportID>189</airportID>
        <IATA>YYT</IATA>
        <ICAO>CYYT</ICAO>
        <city>St. John's</city>
        <latitude>47.61861</latitude>
        <longitude>-52.751945</longitude>
    </airport>
    <airport>
        <airportID>190</airportID>
        <IATA>YYU</IATA>
        <ICAO>CYYU</ICAO>
        <city>Kapuskasing</city>
        <latitude>49.413889</latitude>
        <longitude>-82.4675</longitude>
    </airport>
    <airport>
        <airportID>191</airportID>
        <IATA>YYW</IATA>
        <ICAO>CYYW</ICAO>
        <city>Armstrong</city>
        <latitude>50.290279</latitude>
        <longitude>-88.909721</longitude>
    </airport>
    <airport>
        <airportID>192</airportID>
        <IATA>YYY</IATA>
        <ICAO>CYYY</ICAO>
        <city>Mont Joli</city>
        <latitude>48.608612</latitude>
        <longitude>-68.208056</longitude>
    </airport>
    <airport>
        <airportID>193</airportID>
        <IATA>YYZ</IATA>
        <ICAO>CYYZ</ICAO>
        <city>Toronto</city>
        <latitude>43.677223</latitude>
        <longitude>-79.630556</longitude>
    </airport>
    <airport>
        <airportID>194</airportID>
        <IATA>YZD</IATA>
        <ICAO>CYZD</ICAO>
        <city>Toronto</city>
        <latitude>43.7425</latitude>
        <longitude>-79.465556</longitude>
    </airport>
    <airport>
        <airportID>195</airportID>
        <IATA>YZE</IATA>
        <ICAO>CYZE</ICAO>
        <city>Gore Bay</city>
        <latitude>45.885277</latitude>
        <longitude>-82.567778</longitude>
    </airport>
    <airport>
        <airportID>196</airportID>
        <IATA>YZF</IATA>
        <ICAO>CYZF</ICAO>
        <city>Yellowknife</city>
        <latitude>62.462778</latitude>
        <longitude>-114.440278</longitude>
    </airport>
    <airport>
        <airportID>197</airportID>
        <IATA>YZH</IATA>
        <ICAO>CYZH</ICAO>
        <city>Slave Lake</city>
        <latitude>55.293056</latitude>
        <longitude>-114.777222</longitude>
    </airport>
    <airport>
        <airportID>198</airportID>
        <IATA>YZP</IATA>
        <ICAO>CYZP</ICAO>
        <city>Sandspit</city>
        <latitude>53.254333</latitude>
        <longitude>-131.813833</longitude>
    </airport>
    <airport>
        <airportID>199</airportID>
        <IATA>YZR</IATA>
        <ICAO>CYZR</ICAO>
        <city>Sarnia</city>
        <latitude>42.999444</latitude>
        <longitude>-82.308889</longitude>
    </airport>
    <airport>
        <airportID>200</airportID>
        <IATA>YZT</IATA>
        <ICAO>CYZT</ICAO>
        <city>Port Hardy</city>
        <latitude>50.680556</latitude>
        <longitude>-127.366667</longitude>
    </airport>
    <airport>
        <airportID>201</airportID>
        <IATA>YZU</IATA>
        <ICAO>CYZU</ICAO>
        <city>Whitecourt</city>
        <latitude>54.14389</latitude>
        <longitude>-115.786667</longitude>
    </airport>
    <airport>
        <airportID>202</airportID>
        <IATA>YZV</IATA>
        <ICAO>CYZV</ICAO>
        <city>Sept-iles</city>
        <latitude>50.223333</latitude>
        <longitude>-66.265556</longitude>
    </airport>
    <airport>
        <airportID>203</airportID>
        <IATA>YZW</IATA>
        <ICAO>CYZW</ICAO>
        <city>Teslin</city>
        <latitude>60.172779</latitude>
        <longitude>-132.742778</longitude>
    </airport>
    <airport>
        <airportID>204</airportID>
        <IATA>YZX</IATA>
        <ICAO>CYZX</ICAO>
        <city>Greenwood</city>
        <latitude>44.984444</latitude>
        <longitude>-64.916944</longitude>
    </airport>
    <airport>
        <airportID>205</airportID>
        <IATA>ZFA</IATA>
        <ICAO>CZFA</ICAO>
        <city>Faro</city>
        <latitude>62.2075</latitude>
        <longitude>-133.375833</longitude>
    </airport>
    <airport>
        <airportID>206</airportID>
        <IATA>ZFM</IATA>
        <ICAO>CZFM</ICAO>
        <city>Fort Mcpherson</city>
        <latitude>67.4075</latitude>
        <longitude>-134.860556</longitude>
    </airport>
    <airport>
        <airportID>207</airportID>
        <IATA>NO</IATA>
        <ICAO>DAAB</ICAO>
        <city>Blida</city>
        <latitude>36.503613</latitude>
        <longitude>2.814167</longitude>
    </airport>
    <airport>
        <airportID>208</airportID>
        <IATA>NO</IATA>
        <ICAO>DAAD</ICAO>
        <city>Bou Saada</city>
        <latitude>35.3325</latitude>
        <longitude>4.206389</longitude>
    </airport>
    <airport>
        <airportID>209</airportID>
        <IATA>BJA</IATA>
        <ICAO>DAAE</ICAO>
        <city>Bejaja</city>
        <latitude>36.711997</latitude>
        <longitude>5.069922</longitude>
    </airport>
    <airport>
        <airportID>210</airportID>
        <IATA>ALG</IATA>
        <ICAO>DAAG</ICAO>
        <city>Algier</city>
        <latitude>36.691014</latitude>
        <longitude>3.215408</longitude>
    </airport>
    <airport>
        <airportID>211</airportID>
        <IATA>DJG</IATA>
        <ICAO>DAAJ</ICAO>
        <city>Djanet</city>
        <latitude>24.292767</latitude>
        <longitude>9.452444</longitude>
    </airport>
    <airport>
        <airportID>212</airportID>
        <IATA>QFD</IATA>
        <ICAO>DAAK</ICAO>
        <city>Boufarik</city>
        <latitude>36.545834</latitude>
        <longitude>2.876111</longitude>
    </airport>
    <airport>
        <airportID>213</airportID>
        <IATA>NO</IATA>
        <ICAO>DAAN</ICAO>
        <city>Reggan</city>
        <latitude>26.710103</latitude>
        <longitude>0.285647</longitude>
    </airport>
    <airport>
        <airportID>214</airportID>
        <IATA>VVZ</IATA>
        <ICAO>DAAP</ICAO>
        <city>Illizi</city>
        <latitude>26.723536</latitude>
        <longitude>8.622653</longitude>
    </airport>
    <airport>
        <airportID>215</airportID>
        <IATA>NO</IATA>
        <ICAO>DAAQ</ICAO>
        <city>Ain Oussera</city>
        <latitude>35.525414</latitude>
        <longitude>2.878714</longitude>
    </airport>
    <airport>
        <airportID>216</airportID>
        <IATA>TMR</IATA>
        <ICAO>DAAT</ICAO>
        <city>Tamanrasset</city>
        <latitude>22.811461</latitude>
        <longitude>5.451075</longitude>
    </airport>
    <airport>
        <airportID>217</airportID>
        <IATA>GJL</IATA>
        <ICAO>DAAV</ICAO>
        <city>Jijel</city>
        <latitude>36.795136</latitude>
        <longitude>5.873608</longitude>
    </airport>
    <airport>
        <airportID>218</airportID>
        <IATA>NO</IATA>
        <ICAO>DAAY</ICAO>
        <city>Mecheria</city>
        <latitude>33.535853</latitude>
        <longitude>-0.242353</longitude>
    </airport>
    <airport>
        <airportID>219</airportID>
        <IATA>NO</IATA>
        <ICAO>DAAZ</ICAO>
        <city>Relizane</city>
        <latitude>35.752239</latitude>
        <longitude>0.626272</longitude>
    </airport>
    <airport>
        <airportID>220</airportID>
        <IATA>AAE</IATA>
        <ICAO>DABB</ICAO>
        <city>Annaba</city>
        <latitude>36.822225</latitude>
        <longitude>7.809167</longitude>
    </airport>
    <airport>
        <airportID>221</airportID>
        <IATA>CZL</IATA>
        <ICAO>DABC</ICAO>
        <city>Constantine</city>
        <latitude>36.276028</latitude>
        <longitude>6.620386</longitude>
    </airport>
    <airport>
        <airportID>222</airportID>
        <IATA>TEE</IATA>
        <ICAO>DABS</ICAO>
        <city>Tebessa</city>
        <latitude>35.431611</latitude>
        <longitude>8.120717</longitude>
    </airport>
    <airport>
        <airportID>224</airportID>
        <IATA>HRM</IATA>
        <ICAO>DAFH</ICAO>
        <city>Tilrempt</city>
        <latitude>32.930431</latitude>
        <longitude>3.311542</longitude>
    </airport>
    <airport>
        <airportID>225</airportID>
        <IATA>TID</IATA>
        <ICAO>DAOB</ICAO>
        <city>Tiaret</city>
        <latitude>35.341136</latitude>
        <longitude>1.463147</longitude>
    </airport>
    <airport>
        <airportID>226</airportID>
        <IATA>NO</IATA>
        <ICAO>DAOE</ICAO>
        <city>Bou Sfer</city>
        <latitude>35.735389</latitude>
        <longitude>-0.805389</longitude>
    </airport>
    <airport>
        <airportID>227</airportID>
        <IATA>TIN</IATA>
        <ICAO>DAOF</ICAO>
        <city>Tindouf</city>
        <latitude>27.700372</latitude>
        <longitude>-8.167103</longitude>
    </airport>
    <airport>
        <airportID>228</airportID>
        <IATA>QAS</IATA>
        <ICAO>DAOI</ICAO>
        <city>Ech-cheliff</city>
        <latitude>36.212658</latitude>
        <longitude>1.331775</longitude>
    </airport>
    <airport>
        <airportID>229</airportID>
        <IATA>TAF</IATA>
        <ICAO>DAOL</ICAO>
        <city>Oran</city>
        <latitude>35.542444</latitude>
        <longitude>-0.532278</longitude>
    </airport>
    <airport>
        <airportID>230</airportID>
        <IATA>TLM</IATA>
        <ICAO>DAON</ICAO>
        <city>Tlemcen</city>
        <latitude>35.016667</latitude>
        <longitude>-1.45</longitude>
    </airport>
    <airport>
        <airportID>231</airportID>
        <IATA>ORN</IATA>
        <ICAO>DAOO</ICAO>
        <city>Oran</city>
        <latitude>35.623858</latitude>
        <longitude>-0.621183</longitude>
    </airport>
    <airport>
        <airportID>232</airportID>
        <IATA>NO</IATA>
        <ICAO>DAOS</ICAO>
        <city>Sidi Bel Abbes</city>
        <latitude>35.171775</latitude>
        <longitude>-0.593275</longitude>
    </airport>
    <airport>
        <airportID>233</airportID>
        <IATA>MUW</IATA>
        <ICAO>DAOV</ICAO>
        <city>Ghriss</city>
        <latitude>35.207725</latitude>
        <longitude>0.147142</longitude>
    </airport>
    <airport>
        <airportID>234</airportID>
        <IATA>AZR</IATA>
        <ICAO>DAUA</ICAO>
        <city>Adrar</city>
        <latitude>27.837589</latitude>
        <longitude>-0.186414</longitude>
    </airport>
    <airport>
        <airportID>235</airportID>
        <IATA>BSK</IATA>
        <ICAO>DAUB</ICAO>
        <city>Biskra</city>
        <latitude>34.793289</latitude>
        <longitude>5.738231</longitude>
    </airport>
    <airport>
        <airportID>236</airportID>
        <IATA>ELG</IATA>
        <ICAO>DAUE</ICAO>
        <city>El Golea</city>
        <latitude>30.571294</latitude>
        <longitude>2.859586</longitude>
    </airport>
    <airport>
        <airportID>237</airportID>
        <IATA>GHA</IATA>
        <ICAO>DAUG</ICAO>
        <city>Ghardaia</city>
        <latitude>32.384106</latitude>
        <longitude>3.794114</longitude>
    </airport>
    <airport>
        <airportID>238</airportID>
        <IATA>HME</IATA>
        <ICAO>DAUH</ICAO>
        <city>Hassi Messaoud</city>
        <latitude>31.672972</latitude>
        <longitude>6.140444</longitude>
    </airport>
    <airport>
        <airportID>239</airportID>
        <IATA>INZ</IATA>
        <ICAO>DAUI</ICAO>
        <city>In Salah</city>
        <latitude>27.251022</latitude>
        <longitude>2.512017</longitude>
    </airport>
    <airport>
        <airportID>240</airportID>
        <IATA>TGR</IATA>
        <ICAO>DAUK</ICAO>
        <city>Touggourt</city>
        <latitude>33.067803</latitude>
        <longitude>6.088672</longitude>
    </airport>
    <airport>
        <airportID>241</airportID>
        <IATA>LOO</IATA>
        <ICAO>DAUL</ICAO>
        <city>Laghouat</city>
        <latitude>33.764383</latitude>
        <longitude>2.928344</longitude>
    </airport>
    <airport>
        <airportID>242</airportID>
        <IATA>TMX</IATA>
        <ICAO>DAUT</ICAO>
        <city>Timimoun</city>
        <latitude>29.237119</latitude>
        <longitude>0.276033</longitude>
    </airport>
    <airport>
        <airportID>243</airportID>
        <IATA>OGX</IATA>
        <ICAO>DAUU</ICAO>
        <city>Ouargla</city>
        <latitude>31.917223</latitude>
        <longitude>5.412778</longitude>
    </airport>
    <airport>
        <airportID>244</airportID>
        <IATA>IAM</IATA>
        <ICAO>DAUZ</ICAO>
        <city>Zarzaitine</city>
        <latitude>28.05155</latitude>
        <longitude>9.642911</longitude>
    </airport>
    <airport>
        <airportID>245</airportID>
        <IATA>COO</IATA>
        <ICAO>DBBB</ICAO>
        <city>Cotonou</city>
        <latitude>6.357228</latitude>
        <longitude>2.384353</longitude>
    </airport>
    <airport>
        <airportID>246</airportID>
        <IATA>OUA</IATA>
        <ICAO>DFFD</ICAO>
        <city>Ouagadougou</city>
        <latitude>12.353194</latitude>
        <longitude>-1.512417</longitude>
    </airport>
    <airport>
        <airportID>247</airportID>
        <IATA>BOY</IATA>
        <ICAO>DFOO</ICAO>
        <city>Bobo-dioulasso</city>
        <latitude>11.160056</latitude>
        <longitude>-4.330969</longitude>
    </airport>
    <airport>
        <airportID>248</airportID>
        <IATA>ACC</IATA>
        <ICAO>DGAA</ICAO>
        <city>Accra</city>
        <latitude>5.605186</latitude>
        <longitude>-0.166786</longitude>
    </airport>
    <airport>
        <airportID>249</airportID>
        <IATA>TML</IATA>
        <ICAO>DGLE</ICAO>
        <city>Tamale</city>
        <latitude>9.557192</latitude>
        <longitude>-0.863214</longitude>
    </airport>
    <airport>
        <airportID>250</airportID>
        <IATA>NO</IATA>
        <ICAO>DGLW</ICAO>
        <city>Wa</city>
        <latitude>10.082664</latitude>
        <longitude>-2.507694</longitude>
    </airport>
    <airport>
        <airportID>251</airportID>
        <IATA>NYI</IATA>
        <ICAO>DGSN</ICAO>
        <city>Sunyani</city>
        <latitude>7.361828</latitude>
        <longitude>-2.328756</longitude>
    </airport>
    <airport>
        <airportID>252</airportID>
        <IATA>TKD</IATA>
        <ICAO>DGTK</ICAO>
        <city>Takoradi</city>
        <latitude>4.896056</latitude>
        <longitude>-1.774756</longitude>
    </airport>
    <airport>
        <airportID>253</airportID>
        <IATA>ABJ</IATA>
        <ICAO>DIAP</ICAO>
        <city>Abidjan</city>
        <latitude>5.261386</latitude>
        <longitude>-3.926294</longitude>
    </airport>
    <airport>
        <airportID>254</airportID>
        <IATA>BYK</IATA>
        <ICAO>DIBK</ICAO>
        <city>Bouake</city>
        <latitude>7.7388</latitude>
        <longitude>-5.073667</longitude>
    </airport>
    <airport>
        <airportID>255</airportID>
        <IATA>DJO</IATA>
        <ICAO>DIDL</ICAO>
        <city>Daloa</city>
        <latitude>6.792808</latitude>
        <longitude>-6.473189</longitude>
    </airport>
    <airport>
        <airportID>256</airportID>
        <IATA>HGO</IATA>
        <ICAO>DIKO</ICAO>
        <city>Korhogo</city>
        <latitude>9.387183</latitude>
        <longitude>-5.556664</longitude>
    </airport>
    <airport>
        <airportID>257</airportID>
        <IATA>MJC</IATA>
        <ICAO>DIMN</ICAO>
        <city>Man</city>
        <latitude>7.272069</latitude>
        <longitude>-7.587364</longitude>
    </airport>
    <airport>
        <airportID>258</airportID>
        <IATA>SPY</IATA>
        <ICAO>DISP</ICAO>
        <city>San Pedro</city>
        <latitude>4.746717</latitude>
        <longitude>-6.660817</longitude>
    </airport>
    <airport>
        <airportID>259</airportID>
        <IATA>ASK</IATA>
        <ICAO>DIYO</ICAO>
        <city>Yamoussoukro</city>
        <latitude>6.903167</latitude>
        <longitude>-5.365581</longitude>
    </airport>
    <airport>
        <airportID>260</airportID>
        <IATA>ABV</IATA>
        <ICAO>DNAA</ICAO>
        <city>Abuja</city>
        <latitude>9.006792</latitude>
        <longitude>7.263172</longitude>
    </airport>
    <airport>
        <airportID>261</airportID>
        <IATA>AKR</IATA>
        <ICAO>DNAK</ICAO>
        <city>Akure</city>
        <latitude>7.246739</latitude>
        <longitude>5.301008</longitude>
    </airport>
    <airport>
        <airportID>262</airportID>
        <IATA>BNI</IATA>
        <ICAO>DNBE</ICAO>
        <city>Benin</city>
        <latitude>6.316981</latitude>
        <longitude>5.599503</longitude>
    </airport>
    <airport>
        <airportID>263</airportID>
        <IATA>CBQ</IATA>
        <ICAO>DNCA</ICAO>
        <city>Calabar</city>
        <latitude>4.976019</latitude>
        <longitude>8.347197</longitude>
    </airport>
    <airport>
        <airportID>264</airportID>
        <IATA>ENU</IATA>
        <ICAO>DNEN</ICAO>
        <city>Enugu</city>
        <latitude>6.474272</latitude>
        <longitude>7.561961</longitude>
    </airport>
    <airport>
        <airportID>265</airportID>
        <IATA>QUS</IATA>
        <ICAO>DNGU</ICAO>
        <city>Gusau</city>
        <latitude>12.171667</latitude>
        <longitude>6.696111</longitude>
    </airport>
    <airport>
        <airportID>266</airportID>
        <IATA>IBA</IATA>
        <ICAO>DNIB</ICAO>
        <city>Ibadan</city>
        <latitude>7.362458</latitude>
        <longitude>3.978333</longitude>
    </airport>
    <airport>
        <airportID>267</airportID>
        <IATA>ILR</IATA>
        <ICAO>DNIL</ICAO>
        <city>Ilorin</city>
        <latitude>8.440211</latitude>
        <longitude>4.493919</longitude>
    </airport>
    <airport>
        <airportID>268</airportID>
        <IATA>JOS</IATA>
        <ICAO>DNJO</ICAO>
        <city>Jos</city>
        <latitude>9.639828</latitude>
        <longitude>8.86905</longitude>
    </airport>
    <airport>
        <airportID>269</airportID>
        <IATA>KAD</IATA>
        <ICAO>DNKA</ICAO>
        <city>Kaduna</city>
        <latitude>10.696025</latitude>
        <longitude>7.320114</longitude>
    </airport>
    <airport>
        <airportID>270</airportID>
        <IATA>KAN</IATA>
        <ICAO>DNKN</ICAO>
        <city>Kano</city>
        <latitude>12.047589</latitude>
        <longitude>8.524622</longitude>
    </airport>
    <airport>
        <airportID>271</airportID>
        <IATA>MIU</IATA>
        <ICAO>DNMA</ICAO>
        <city>Maiduguri</city>
        <latitude>11.855347</latitude>
        <longitude>13.08095</longitude>
    </airport>
    <airport>
        <airportID>272</airportID>
        <IATA>MDI</IATA>
        <ICAO>DNMK</ICAO>
        <city>Makurdi</city>
        <latitude>7.703883</latitude>
        <longitude>8.613939</longitude>
    </airport>
    <airport>
        <airportID>273</airportID>
        <IATA>LOS</IATA>
        <ICAO>DNMM</ICAO>
        <city>Lagos</city>
        <latitude>6.577369</latitude>
        <longitude>3.321156</longitude>
    </airport>
    <airport>
        <airportID>274</airportID>
        <IATA>MXJ</IATA>
        <ICAO>DNMN</ICAO>
        <city>Minna</city>
        <latitude>9.652172</latitude>
        <longitude>6.462256</longitude>
    </airport>
    <airport>
        <airportID>275</airportID>
        <IATA>PHC</IATA>
        <ICAO>DNPO</ICAO>
        <city>Port Hartcourt</city>
        <latitude>5.015494</latitude>
        <longitude>6.949594</longitude>
    </airport>
    <airport>
        <airportID>276</airportID>
        <IATA>SKO</IATA>
        <ICAO>DNSO</ICAO>
        <city>Sokoto</city>
        <latitude>12.916322</latitude>
        <longitude>5.207189</longitude>
    </airport>
    <airport>
        <airportID>277</airportID>
        <IATA>YOL</IATA>
        <ICAO>DNYO</ICAO>
        <city>Yola</city>
        <latitude>9.257553</latitude>
        <longitude>12.430422</longitude>
    </airport>
    <airport>
        <airportID>278</airportID>
        <IATA>ZAR</IATA>
        <ICAO>DNZA</ICAO>
        <city>Zaria</city>
        <latitude>11.130192</latitude>
        <longitude>7.685806</longitude>
    </airport>
    <airport>
        <airportID>279</airportID>
        <IATA>MFQ</IATA>
        <ICAO>DRRM</ICAO>
        <city>Maradi</city>
        <latitude>13.502531</latitude>
        <longitude>7.126753</longitude>
    </airport>
    <airport>
        <airportID>280</airportID>
        <IATA>NIM</IATA>
        <ICAO>DRRN</ICAO>
        <city>Niamey</city>
        <latitude>13.481547</latitude>
        <longitude>2.183614</longitude>
    </airport>
    <airport>
        <airportID>281</airportID>
        <IATA>THZ</IATA>
        <ICAO>DRRT</ICAO>
        <city>Tahoua</city>
        <latitude>14.875658</latitude>
        <longitude>5.265358</longitude>
    </airport>
    <airport>
        <airportID>282</airportID>
        <IATA>AJY</IATA>
        <ICAO>DRZA</ICAO>
        <city>Agadez</city>
        <latitude>16.965997</latitude>
        <longitude>8.000114</longitude>
    </airport>
    <airport>
        <airportID>283</airportID>
        <IATA>NO</IATA>
        <ICAO>DRZD</ICAO>
        <city>Dirkou</city>
        <latitude>18.968703</latitude>
        <longitude>12.86865</longitude>
    </airport>
    <airport>
        <airportID>284</airportID>
        <IATA>NO</IATA>
        <ICAO>DRZF</ICAO>
        <city>Diffa</city>
        <latitude>13.372894</latitude>
        <longitude>12.626686</longitude>
    </airport>
    <airport>
        <airportID>285</airportID>
        <IATA>ZND</IATA>
        <ICAO>DRZR</ICAO>
        <city>Zinder</city>
        <latitude>13.778997</latitude>
        <longitude>8.983761</longitude>
    </airport>
    <airport>
        <airportID>286</airportID>
        <IATA>MIR</IATA>
        <ICAO>DTMB</ICAO>
        <city>Monastir</city>
        <latitude>35.758056</latitude>
        <longitude>10.754722</longitude>
    </airport>
    <airport>
        <airportID>287</airportID>
        <IATA>TUN</IATA>
        <ICAO>DTTA</ICAO>
        <city>Tunis</city>
        <latitude>36.851033</latitude>
        <longitude>10.227217</longitude>
    </airport>
    <airport>
        <airportID>288</airportID>
        <IATA>NO</IATA>
        <ICAO>DTTB</ICAO>
        <city>Bizerte</city>
        <latitude>37.245447</latitude>
        <longitude>9.791453</longitude>
    </airport>
    <airport>
        <airportID>289</airportID>
        <IATA>NO</IATA>
        <ICAO>DTTD</ICAO>
        <city>Remada</city>
        <latitude>32.306156</latitude>
        <longitude>10.382108</longitude>
    </airport>
    <airport>
        <airportID>290</airportID>
        <IATA>GAF</IATA>
        <ICAO>DTTF</ICAO>
        <city>Gafsa</city>
        <latitude>34.422022</latitude>
        <longitude>8.822503</longitude>
    </airport>
    <airport>
        <airportID>291</airportID>
        <IATA>GAE</IATA>
        <ICAO>DTTG</ICAO>
        <city>Gabes</city>
        <latitude>33.876919</latitude>
        <longitude>10.103333</longitude>
    </airport>
    <airport>
        <airportID>292</airportID>
        <IATA>NO</IATA>
        <ICAO>DTTI</ICAO>
        <city>Bordj El Amri</city>
        <latitude>36.721339</latitude>
        <longitude>9.943147</longitude>
    </airport>
    <airport>
        <airportID>293</airportID>
        <IATA>DJE</IATA>
        <ICAO>DTTJ</ICAO>
        <city>Djerba</city>
        <latitude>33.875031</latitude>
        <longitude>10.775461</longitude>
    </airport>
    <airport>
        <airportID>294</airportID>
        <IATA>EBM</IATA>
        <ICAO>DTTR</ICAO>
        <city>El Borma</city>
        <latitude>31.704281</latitude>
        <longitude>9.254619</longitude>
    </airport>
    <airport>
        <airportID>295</airportID>
        <IATA>SFA</IATA>
        <ICAO>DTTX</ICAO>
        <city>Sfax</city>
        <latitude>34.717953</latitude>
        <longitude>10.690972</longitude>
    </airport>
    <airport>
        <airportID>296</airportID>
        <IATA>TOE</IATA>
        <ICAO>DTTZ</ICAO>
        <city>Tozeur</city>
        <latitude>33.939722</latitude>
        <longitude>8.110556</longitude>
    </airport>
    <airport>
        <airportID>297</airportID>
        <IATA>LRL</IATA>
        <ICAO>DXNG</ICAO>
        <city>Niatougou</city>
        <latitude>9.767333</latitude>
        <longitude>1.09125</longitude>
    </airport>
    <airport>
        <airportID>298</airportID>
        <IATA>LFW</IATA>
        <ICAO>DXXX</ICAO>
        <city>Lome</city>
        <latitude>6.165611</latitude>
        <longitude>1.254511</longitude>
    </airport>
    <airport>
        <airportID>299</airportID>
        <IATA>ANR</IATA>
        <ICAO>EBAW</ICAO>
        <city>Antwerp</city>
        <latitude>51.189444</latitude>
        <longitude>4.460278</longitude>
    </airport>
    <airport>
        <airportID>300</airportID>
        <IATA>NO</IATA>
        <ICAO>EBBE</ICAO>
        <city>Beauvechain</city>
        <latitude>50.75861</latitude>
        <longitude>4.768333</longitude>
    </airport>
    <airport>
        <airportID>301</airportID>
        <IATA>NO</IATA>
        <ICAO>EBBL</ICAO>
        <city>Kleine Brogel</city>
        <latitude>51.168333</latitude>
        <longitude>5.47</longitude>
    </airport>
    <airport>
        <airportID>302</airportID>
        <IATA>BRU</IATA>
        <ICAO>EBBR</ICAO>
        <city>Brussels</city>
        <latitude>50.901389</latitude>
        <longitude>4.484444</longitude>
    </airport>
    <airport>
        <airportID>303</airportID>
        <IATA>NO</IATA>
        <ICAO>EBBX</ICAO>
        <city>Bertrix</city>
        <latitude>49.891667</latitude>
        <longitude>5.223889</longitude>
    </airport>
    <airport>
        <airportID>304</airportID>
        <IATA>CRL</IATA>
        <ICAO>EBCI</ICAO>
        <city>Charleroi</city>
        <latitude>50.459197</latitude>
        <longitude>4.453817</longitude>
    </airport>
    <airport>
        <airportID>305</airportID>
        <IATA>NO</IATA>
        <ICAO>EBCV</ICAO>
        <city>Chievres</city>
        <latitude>50.575833</latitude>
        <longitude>3.831</longitude>
    </airport>
    <airport>
        <airportID>306</airportID>
        <IATA>NO</IATA>
        <ICAO>EBFN</ICAO>
        <city>Koksijde</city>
        <latitude>51.090278</latitude>
        <longitude>2.652778</longitude>
    </airport>
    <airport>
        <airportID>307</airportID>
        <IATA>NO</IATA>
        <ICAO>EBFS</ICAO>
        <city>Florennes</city>
        <latitude>50.243333</latitude>
        <longitude>4.645833</longitude>
    </airport>
    <airport>
        <airportID>308</airportID>
        <IATA>QKT</IATA>
        <ICAO>EBKT</ICAO>
        <city>Kortrijk-vevelgem</city>
        <latitude>50.817222</latitude>
        <longitude>3.204722</longitude>
    </airport>
    <airport>
        <airportID>309</airportID>
        <IATA>LGG</IATA>
        <ICAO>EBLG</ICAO>
        <city>Liege</city>
        <latitude>50.637417</latitude>
        <longitude>5.443222</longitude>
    </airport>
    <airport>
        <airportID>310</airportID>
        <IATA>OST</IATA>
        <ICAO>EBOS</ICAO>
        <city>Ostend</city>
        <latitude>51.198889</latitude>
        <longitude>2.862222</longitude>
    </airport>
    <airport>
        <airportID>311</airportID>
        <IATA>NO</IATA>
        <ICAO>EBSL</ICAO>
        <city>Zutendaal</city>
        <latitude>50.9475</latitude>
        <longitude>5.590556</longitude>
    </airport>
    <airport>
        <airportID>312</airportID>
        <IATA>NO</IATA>
        <ICAO>EBST</ICAO>
        <city>Sint-truiden</city>
        <latitude>50.791944</latitude>
        <longitude>5.201667</longitude>
    </airport>
    <airport>
        <airportID>313</airportID>
        <IATA>NO</IATA>
        <ICAO>EBSU</ICAO>
        <city>St.-hubert</city>
        <latitude>50.035833</latitude>
        <longitude>5.404167</longitude>
    </airport>
    <airport>
        <airportID>314</airportID>
        <IATA>NO</IATA>
        <ICAO>EBUL</ICAO>
        <city>Ursel</city>
        <latitude>51.144133</latitude>
        <longitude>3.474361</longitude>
    </airport>
    <airport>
        <airportID>315</airportID>
        <IATA>NO</IATA>
        <ICAO>EBWE</ICAO>
        <city>Weelde</city>
        <latitude>51.394783</latitude>
        <longitude>4.960194</longitude>
    </airport>
    <airport>
        <airportID>316</airportID>
        <IATA>NO</IATA>
        <ICAO>EBZR</ICAO>
        <city>Zoersel</city>
        <latitude>51.264722</latitude>
        <longitude>4.753333</longitude>
    </airport>
    <airport>
        <airportID>317</airportID>
        <IATA>BBJ</IATA>
        <ICAO>EDAB</ICAO>
        <city>Bautzen</city>
        <latitude>51.193531</latitude>
        <longitude>14.519747</longitude>
    </airport>
    <airport>
        <airportID>318</airportID>
        <IATA>AOC</IATA>
        <ICAO>EDAC</ICAO>
        <city>Altenburg</city>
        <latitude>50.981817</latitude>
        <longitude>12.506361</longitude>
    </airport>
    <airport>
        <airportID>319</airportID>
        <IATA>NO</IATA>
        <ICAO>EDAD</ICAO>
        <city>Dessau</city>
        <latitude>51.831828</latitude>
        <longitude>12.184033</longitude>
    </airport>
    <airport>
        <airportID>320</airportID>
        <IATA>NO</IATA>
        <ICAO>EDAE</ICAO>
        <city>Eisenhuettenstadt</city>
        <latitude>52.197333</latitude>
        <longitude>14.585667</longitude>
    </airport>
    <airport>
        <airportID>6891</airportID>
        <IATA>4I7</IATA>
        <ICAO>\N</ICAO>
        <city>Greencastle</city>
        <latitude>39.6335556</latitude>
        <longitude>-86.8138056</longitude>
    </airport>
    <airport>
        <airportID>322</airportID>
        <IATA>NO</IATA>
        <ICAO>EDAK</ICAO>
        <city>Suhl</city>
        <latitude>51.308111</latitude>
        <longitude>13.554973</longitude>
    </airport>
    <airport>
        <airportID>323</airportID>
        <IATA>NO</IATA>
        <ICAO>EDAM</ICAO>
        <city>Muehlhausen</city>
        <latitude>51.363</latitude>
        <longitude>11.940833</longitude>
    </airport>
    <airport>
        <airportID>324</airportID>
        <IATA>NO</IATA>
        <ICAO>EDAQ</ICAO>
        <city>Halle</city>
        <latitude>51.552</latitude>
        <longitude>12.052667</longitude>
    </airport>
    <airport>
        <airportID>325</airportID>
        <IATA>NO</IATA>
        <ICAO>EDAU</ICAO>
        <city>Riesa</city>
        <latitude>51.2935</latitude>
        <longitude>13.356</longitude>
    </airport>
    <airport>
        <airportID>326</airportID>
        <IATA>NO</IATA>
        <ICAO>EDAX</ICAO>
        <city>Rechlin-laerz</city>
        <latitude>53.306417</latitude>
        <longitude>12.753139</longitude>
    </airport>
    <airport>
        <airportID>327</airportID>
        <IATA>NO</IATA>
        <ICAO>EDAY</ICAO>
        <city>Strausberg</city>
        <latitude>52.579978</latitude>
        <longitude>13.915683</longitude>
    </airport>
    <airport>
        <airportID>328</airportID>
        <IATA>NO</IATA>
        <ICAO>EDAZ</ICAO>
        <city>Schoenhagen</city>
        <latitude>52.203258</latitude>
        <longitude>13.158408</longitude>
    </airport>
    <airport>
        <airportID>329</airportID>
        <IATA>BBH</IATA>
        <ICAO>EDBH</ICAO>
        <city>Barth</city>
        <latitude>54.33754</latitude>
        <longitude>12.699705</longitude>
    </airport>
    <airport>
        <airportID>330</airportID>
        <IATA>NO</IATA>
        <ICAO>EDBJ</ICAO>
        <city>Jena</city>
        <latitude>50.915161</latitude>
        <longitude>11.714519</longitude>
    </airport>
    <airport>
        <airportID>331</airportID>
        <IATA>NO</IATA>
        <ICAO>EDBK</ICAO>
        <city>Kyritz</city>
        <latitude>52.918833</latitude>
        <longitude>12.425333</longitude>
    </airport>
    <airport>
        <airportID>332</airportID>
        <IATA>NO</IATA>
        <ICAO>EDBM</ICAO>
        <city>Magdeburg</city>
        <latitude>52.073658</latitude>
        <longitude>11.626467</longitude>
    </airport>
    <airport>
        <airportID>333</airportID>
        <IATA>NO</IATA>
        <ICAO>EDBR</ICAO>
        <city>Rothenburg/ol</city>
        <latitude>51.363167</latitude>
        <longitude>14.95</longitude>
    </airport>
    <airport>
        <airportID>334</airportID>
        <IATA>NO</IATA>
        <ICAO>EDCA</ICAO>
        <city>Anklam</city>
        <latitude>53.8327</latitude>
        <longitude>13.669131</longitude>
    </airport>
    <airport>
        <airportID>335</airportID>
        <IATA>NO</IATA>
        <ICAO>EDCD</ICAO>
        <city>Cottbus</city>
        <latitude>51.889475</latitude>
        <longitude>14.531986</longitude>
    </airport>
    <airport>
        <airportID>336</airportID>
        <IATA>NO</IATA>
        <ICAO>EDCM</ICAO>
        <city>Kamenz</city>
        <latitude>51.29625</latitude>
        <longitude>14.129</longitude>
    </airport>
    <airport>
        <airportID>337</airportID>
        <IATA>SXF</IATA>
        <ICAO>EDDB</ICAO>
        <city>Berlin</city>
        <latitude>52.380001</latitude>
        <longitude>13.5225</longitude>
    </airport>
    <airport>
        <airportID>338</airportID>
        <IATA>DRS</IATA>
        <ICAO>EDDC</ICAO>
        <city>Dresden</city>
        <latitude>51.132767</latitude>
        <longitude>13.767161</longitude>
    </airport>
    <airport>
        <airportID>339</airportID>
        <IATA>ERF</IATA>
        <ICAO>EDDE</ICAO>
        <city>Erfurt</city>
        <latitude>50.979811</latitude>
        <longitude>10.958106</longitude>
    </airport>
    <airport>
        <airportID>340</airportID>
        <IATA>FRA</IATA>
        <ICAO>EDDF</ICAO>
        <city>Frankfurt</city>
        <latitude>50.026421</latitude>
        <longitude>8.543125</longitude>
    </airport>
    <airport>
        <airportID>341</airportID>
        <IATA>FMO</IATA>
        <ICAO>EDDG</ICAO>
        <city>Munster</city>
        <latitude>52.134642</latitude>
        <longitude>7.684831</longitude>
    </airport>
    <airport>
        <airportID>342</airportID>
        <IATA>HAM</IATA>
        <ICAO>EDDH</ICAO>
        <city>Hamburg</city>
        <latitude>53.630389</latitude>
        <longitude>9.988228</longitude>
    </airport>
    <airport>
        <airportID>343</airportID>
        <IATA>THF</IATA>
        <ICAO>EDDI</ICAO>
        <city>Berlin</city>
        <latitude>52.473025</latitude>
        <longitude>13.403944</longitude>
    </airport>
    <airport>
        <airportID>344</airportID>
        <IATA>CGN</IATA>
        <ICAO>EDDK</ICAO>
        <city>Cologne</city>
        <latitude>50.865917</latitude>
        <longitude>7.142744</longitude>
    </airport>
    <airport>
        <airportID>345</airportID>
        <IATA>DUS</IATA>
        <ICAO>EDDL</ICAO>
        <city>Duesseldorf</city>
        <latitude>51.289453</latitude>
        <longitude>6.766775</longitude>
    </airport>
    <airport>
        <airportID>346</airportID>
        <IATA>MUC</IATA>
        <ICAO>EDDM</ICAO>
        <city>Munich</city>
        <latitude>48.353783</latitude>
        <longitude>11.786086</longitude>
    </airport>
    <airport>
        <airportID>347</airportID>
        <IATA>NUE</IATA>
        <ICAO>EDDN</ICAO>
        <city>Nuernberg</city>
        <latitude>49.4987</latitude>
        <longitude>11.066897</longitude>
    </airport>
    <airport>
        <airportID>348</airportID>
        <IATA>LEJ</IATA>
        <ICAO>EDDP</ICAO>
        <city>Leipzig</city>
        <latitude>51.432447</latitude>
        <longitude>12.241633</longitude>
    </airport>
    <airport>
        <airportID>349</airportID>
        <IATA>SCN</IATA>
        <ICAO>EDDR</ICAO>
        <city>Saarbruecken</city>
        <latitude>49.214553</latitude>
        <longitude>7.109508</longitude>
    </airport>
    <airport>
        <airportID>350</airportID>
        <IATA>STR</IATA>
        <ICAO>EDDS</ICAO>
        <city>Stuttgart</city>
        <latitude>48.689878</latitude>
        <longitude>9.221964</longitude>
    </airport>
    <airport>
        <airportID>351</airportID>
        <IATA>TXL</IATA>
        <ICAO>EDDT</ICAO>
        <city>Berlin</city>
        <latitude>52.559686</latitude>
        <longitude>13.287711</longitude>
    </airport>
    <airport>
        <airportID>352</airportID>
        <IATA>HAJ</IATA>
        <ICAO>EDDV</ICAO>
        <city>Hannover</city>
        <latitude>52.461056</latitude>
        <longitude>9.685078</longitude>
    </airport>
    <airport>
        <airportID>353</airportID>
        <IATA>BRE</IATA>
        <ICAO>EDDW</ICAO>
        <city>Bremen</city>
        <latitude>53.0475</latitude>
        <longitude>8.786667</longitude>
    </airport>
    <airport>
        <airportID>354</airportID>
        <IATA>NO</IATA>
        <ICAO>EDFE</ICAO>
        <city>Egelsbach</city>
        <latitude>49.960833</latitude>
        <longitude>8.6415</longitude>
    </airport>
    <airport>
        <airportID>355</airportID>
        <IATA>HHN</IATA>
        <ICAO>EDFH</ICAO>
        <city>Hahn</city>
        <latitude>49.948672</latitude>
        <longitude>7.263892</longitude>
    </airport>
    <airport>
        <airportID>356</airportID>
        <IATA>MHG</IATA>
        <ICAO>EDFM</ICAO>
        <city>Mannheim</city>
        <latitude>49.472706</latitude>
        <longitude>8.514264</longitude>
    </airport>
    <airport>
        <airportID>357</airportID>
        <IATA>NO</IATA>
        <ICAO>EDFQ</ICAO>
        <city>Allendorf</city>
        <latitude>51.034878</latitude>
        <longitude>8.680839</longitude>
    </airport>
    <airport>
        <airportID>358</airportID>
        <IATA>NO</IATA>
        <ICAO>EDFV</ICAO>
        <city>Worms</city>
        <latitude>49.606511</latitude>
        <longitude>8.3684</longitude>
    </airport>
    <airport>
        <airportID>359</airportID>
        <IATA>NO</IATA>
        <ICAO>EDFZ</ICAO>
        <city>Mainz</city>
        <latitude>49.968931</latitude>
        <longitude>8.148336</longitude>
    </airport>
    <airport>
        <airportID>360</airportID>
        <IATA>NO</IATA>
        <ICAO>EDGE</ICAO>
        <city>Eisenach</city>
        <latitude>50.992797</latitude>
        <longitude>10.472711</longitude>
    </airport>
    <airport>
        <airportID>361</airportID>
        <IATA>NO</IATA>
        <ICAO>EDGS</ICAO>
        <city>Siegerland</city>
        <latitude>50.707658</latitude>
        <longitude>8.082969</longitude>
    </airport>
    <airport>
        <airportID>362</airportID>
        <IATA>XFW</IATA>
        <ICAO>EDHI</ICAO>
        <city>Hamburg</city>
        <latitude>53.535886</latitude>
        <longitude>9.837025</longitude>
    </airport>
    <airport>
        <airportID>363</airportID>
        <IATA>KEL</IATA>
        <ICAO>EDHK</ICAO>
        <city>Kiel</city>
        <latitude>54.3795</latitude>
        <longitude>10.145167</longitude>
    </airport>
    <airport>
        <airportID>364</airportID>
        <IATA>LBC</IATA>
        <ICAO>EDHL</ICAO>
        <city>Luebeck</city>
        <latitude>53.805367</latitude>
        <longitude>10.719222</longitude>
    </airport>
    <airport>
        <airportID>365</airportID>
        <IATA>NO</IATA>
        <ICAO>EDKV</ICAO>
        <city>Dahlemer Binz</city>
        <latitude>50.405888</latitude>
        <longitude>6.528083</longitude>
    </airport>
    <airport>
        <airportID>366</airportID>
        <IATA>NO</IATA>
        <ICAO>EDKZ</ICAO>
        <city>Meinerzhagen</city>
        <latitude>51.099445</latitude>
        <longitude>7.601944</longitude>
    </airport>
    <airport>
        <airportID>367</airportID>
        <IATA>ZCA</IATA>
        <ICAO>EDLA</ICAO>
        <city>Arnsberg</city>
        <latitude>51.483333</latitude>
        <longitude>7.899333</longitude>
    </airport>
    <airport>
        <airportID>368</airportID>
        <IATA>ESS</IATA>
        <ICAO>EDLE</ICAO>
        <city>Essen</city>
        <latitude>51.402333</latitude>
        <longitude>6.937333</longitude>
    </airport>
    <airport>
        <airportID>369</airportID>
        <IATA>NO</IATA>
        <ICAO>EDLI</ICAO>
        <city>Bielefeld</city>
        <latitude>51.964833</latitude>
        <longitude>8.544833</longitude>
    </airport>
    <airport>
        <airportID>370</airportID>
        <IATA>MGL</IATA>
        <ICAO>EDLN</ICAO>
        <city>Moenchengladbach</city>
        <latitude>51.230356</latitude>
        <longitude>6.504494</longitude>
    </airport>
    <airport>
        <airportID>371</airportID>
        <IATA>PAD</IATA>
        <ICAO>EDLP</ICAO>
        <city>Paderborn</city>
        <latitude>51.614089</latitude>
        <longitude>8.616317</longitude>
    </airport>
    <airport>
        <airportID>372</airportID>
        <IATA>NO</IATA>
        <ICAO>EDLS</ICAO>
        <city>Stadtlohn</city>
        <latitude>51.995844</latitude>
        <longitude>6.840667</longitude>
    </airport>
    <airport>
        <airportID>373</airportID>
        <IATA>DTM</IATA>
        <ICAO>EDLW</ICAO>
        <city>Dortmund</city>
        <latitude>51.518314</latitude>
        <longitude>7.612242</longitude>
    </airport>
    <airport>
        <airportID>374</airportID>
        <IATA>AGB</IATA>
        <ICAO>EDMA</ICAO>
        <city>Augsburg</city>
        <latitude>48.425158</latitude>
        <longitude>10.931764</longitude>
    </airport>
    <airport>
        <airportID>375</airportID>
        <IATA>NO</IATA>
        <ICAO>EDMB</ICAO>
        <city>Biberach</city>
        <latitude>48.111</latitude>
        <longitude>9.762833</longitude>
    </airport>
    <airport>
        <airportID>376</airportID>
        <IATA>NO</IATA>
        <ICAO>EDME</ICAO>
        <city>Eggenfelden</city>
        <latitude>48.396167</latitude>
        <longitude>12.723667</longitude>
    </airport>
    <airport>
        <airportID>377</airportID>
        <IATA>NO</IATA>
        <ICAO>EDMN</ICAO>
        <city>Mindelheim</city>
        <latitude>48.108833</latitude>
        <longitude>10.524333</longitude>
    </airport>
    <airport>
        <airportID>378</airportID>
        <IATA>OBF</IATA>
        <ICAO>EDMO</ICAO>
        <city>Oberpfaffenhofen</city>
        <latitude>48.081364</latitude>
        <longitude>11.283067</longitude>
    </airport>
    <airport>
        <airportID>379</airportID>
        <IATA>NO</IATA>
        <ICAO>EDMS</ICAO>
        <city>Straubing</city>
        <latitude>48.90095</latitude>
        <longitude>12.518186</longitude>
    </airport>
    <airport>
        <airportID>380</airportID>
        <IATA>NO</IATA>
        <ICAO>EDMV</ICAO>
        <city>Vilshofen</city>
        <latitude>48.635167</latitude>
        <longitude>13.195667</longitude>
    </airport>
    <airport>
        <airportID>381</airportID>
        <IATA>NO</IATA>
        <ICAO>EDNL</ICAO>
        <city>Leutkirch</city>
        <latitude>47.859117</latitude>
        <longitude>10.014572</longitude>
    </airport>
    <airport>
        <airportID>382</airportID>
        <IATA>FDH</IATA>
        <ICAO>EDNY</ICAO>
        <city>Friedrichshafen</city>
        <latitude>47.671317</latitude>
        <longitude>9.511486</longitude>
    </airport>
    <airport>
        <airportID>383</airportID>
        <IATA>SZW</IATA>
        <ICAO>EDOP</ICAO>
        <city>Parchim</city>
        <latitude>53.426997</latitude>
        <longitude>11.783436</longitude>
    </airport>
    <airport>
        <airportID>384</airportID>
        <IATA>ZSN</IATA>
        <ICAO>EDOV</ICAO>
        <city>Stendal</city>
        <latitude>52.627778</latitude>
        <longitude>11.818333</longitude>
    </airport>
    <airport>
        <airportID>385</airportID>
        <IATA>NO</IATA>
        <ICAO>EDPA</ICAO>
        <city>Aalen-heidenheim</city>
        <latitude>48.777833</latitude>
        <longitude>10.264667</longitude>
    </airport>
    <airport>
        <airportID>386</airportID>
        <IATA>BYU</IATA>
        <ICAO>EDQD</ICAO>
        <city>Bayreuth</city>
        <latitude>49.984428</latitude>
        <longitude>11.638569</longitude>
    </airport>
    <airport>
        <airportID>387</airportID>
        <IATA>NO</IATA>
        <ICAO>EDQE</ICAO>
        <city>Burg Feuerstein</city>
        <latitude>49.793833</latitude>
        <longitude>11.133167</longitude>
    </airport>
    <airport>
        <airportID>388</airportID>
        <IATA>HOQ</IATA>
        <ICAO>EDQM</ICAO>
        <city>Hof</city>
        <latitude>50.288836</latitude>
        <longitude>11.854919</longitude>
    </airport>
    <airport>
        <airportID>389</airportID>
        <IATA>NO</IATA>
        <ICAO>EDQT</ICAO>
        <city>Hassfurt</city>
        <latitude>50.018</latitude>
        <longitude>10.5295</longitude>
    </airport>
    <airport>
        <airportID>390</airportID>
        <IATA>ZNV</IATA>
        <ICAO>EDRK</ICAO>
        <city>Koblenz</city>
        <latitude>50.3255</latitude>
        <longitude>7.528667</longitude>
    </airport>
    <airport>
        <airportID>391</airportID>
        <IATA>ZQF</IATA>
        <ICAO>EDRT</ICAO>
        <city>Trier</city>
        <latitude>49.8635</latitude>
        <longitude>6.788167</longitude>
    </airport>
    <airport>
        <airportID>392</airportID>
        <IATA>ZQC</IATA>
        <ICAO>EDRY</ICAO>
        <city>Speyer</city>
        <latitude>49.302776</latitude>
        <longitude>8.451195</longitude>
    </airport>
    <airport>
        <airportID>393</airportID>
        <IATA>NO</IATA>
        <ICAO>EDRZ</ICAO>
        <city>Zweibruecken</city>
        <latitude>49.209525</latitude>
        <longitude>7.400647</longitude>
    </airport>
    <airport>
        <airportID>394</airportID>
        <IATA>ZQL</IATA>
        <ICAO>EDTD</ICAO>
        <city>Donaueschingen</city>
        <latitude>47.973331</latitude>
        <longitude>8.522223</longitude>
    </airport>
    <airport>
        <airportID>395</airportID>
        <IATA>NO</IATA>
        <ICAO>EDTF</ICAO>
        <city>Freiburg</city>
        <latitude>48.022653</latitude>
        <longitude>7.832583</longitude>
    </airport>
    <airport>
        <airportID>396</airportID>
        <IATA>NO</IATA>
        <ICAO>EDTM</ICAO>
        <city>Mengen</city>
        <latitude>48.053833</latitude>
        <longitude>9.372833</longitude>
    </airport>
    <airport>
        <airportID>397</airportID>
        <IATA>NO</IATA>
        <ICAO>EDTY</ICAO>
        <city>Schwaebisch Hall</city>
        <latitude>49.118317</latitude>
        <longitude>9.783956</longitude>
    </airport>
    <airport>
        <airportID>398</airportID>
        <IATA>NO</IATA>
        <ICAO>EDUS</ICAO>
        <city>Soest</city>
        <latitude>51.6075</latitude>
        <longitude>13.738</longitude>
    </airport>
    <airport>
        <airportID>399</airportID>
        <IATA>BWE</IATA>
        <ICAO>EDVE</ICAO>
        <city>Braunschweig</city>
        <latitude>52.319167</latitude>
        <longitude>10.556111</longitude>
    </airport>
    <airport>
        <airportID>400</airportID>
        <IATA>KSF</IATA>
        <ICAO>EDVK</ICAO>
        <city>Kassel</city>
        <latitude>51.408394</latitude>
        <longitude>9.377631</longitude>
    </airport>
    <airport>
        <airportID>401</airportID>
        <IATA>NO</IATA>
        <ICAO>EDVM</ICAO>
        <city>Hildesheim</city>
        <latitude>52.179833</latitude>
        <longitude>9.945667</longitude>
    </airport>
    <airport>
        <airportID>402</airportID>
        <IATA>BRV</IATA>
        <ICAO>EDWB</ICAO>
        <city>Bremerhaven</city>
        <latitude>53.507081</latitude>
        <longitude>8.572878</longitude>
    </airport>
    <airport>
        <airportID>403</airportID>
        <IATA>EME</IATA>
        <ICAO>EDWE</ICAO>
        <city>Emden</city>
        <latitude>53.391186</latitude>
        <longitude>7.227408</longitude>
    </airport>
    <airport>
        <airportID>404</airportID>
        <IATA>NO</IATA>
        <ICAO>EDWF</ICAO>
        <city>Leer</city>
        <latitude>53.271592</latitude>
        <longitude>7.442344</longitude>
    </airport>
    <airport>
        <airportID>405</airportID>
        <IATA>WVN</IATA>
        <ICAO>EDWI</ICAO>
        <city>Wilhelmshaven</city>
        <latitude>53.504833</latitude>
        <longitude>8.053333</longitude>
    </airport>
    <airport>
        <airportID>406</airportID>
        <IATA>BMK</IATA>
        <ICAO>EDWR</ICAO>
        <city>Borkum</city>
        <latitude>53.5955</latitude>
        <longitude>6.709167</longitude>
    </airport>
    <airport>
        <airportID>407</airportID>
        <IATA>NRD</IATA>
        <ICAO>EDWY</ICAO>
        <city>Norderney</city>
        <latitude>53.706822</latitude>
        <longitude>7.230247</longitude>
    </airport>
    <airport>
        <airportID>408</airportID>
        <IATA>FLF</IATA>
        <ICAO>EDXF</ICAO>
        <city>Flensburg</city>
        <latitude>54.771772</latitude>
        <longitude>9.378214</longitude>
    </airport>
    <airport>
        <airportID>409</airportID>
        <IATA>NO</IATA>
        <ICAO>EDXR</ICAO>
        <city>Rendsburg</city>
        <latitude>54.220928</latitude>
        <longitude>9.600803</longitude>
    </airport>
    <airport>
        <airportID>410</airportID>
        <IATA>GWT</IATA>
        <ICAO>EDXW</ICAO>
        <city>Westerland</city>
        <latitude>54.91325</latitude>
        <longitude>8.340472</longitude>
    </airport>
    <airport>
        <airportID>411</airportID>
        <IATA>NO</IATA>
        <ICAO>EEEI</ICAO>
        <city>Armari Air Force Base</city>
        <latitude>59.260286</latitude>
        <longitude>24.208467</longitude>
    </airport>
    <airport>
        <airportID>412</airportID>
        <IATA>KDL</IATA>
        <ICAO>EEKA</ICAO>
        <city>Kardla</city>
        <latitude>58.990756</latitude>
        <longitude>22.830733</longitude>
    </airport>
    <airport>
        <airportID>413</airportID>
        <IATA>URE</IATA>
        <ICAO>EEKE</ICAO>
        <city>Kuressaare</city>
        <latitude>58.229883</latitude>
        <longitude>22.509494</longitude>
    </airport>
    <airport>
        <airportID>414</airportID>
        <IATA>EPU</IATA>
        <ICAO>EEPU</ICAO>
        <city>Parnu</city>
        <latitude>58.419044</latitude>
        <longitude>24.472819</longitude>
    </airport>
    <airport>
        <airportID>415</airportID>
        <IATA>TLL</IATA>
        <ICAO>EETN</ICAO>
        <city>Tallinn-ulemiste International</city>
        <latitude>59.413317</latitude>
        <longitude>24.832844</longitude>
    </airport>
    <airport>
        <airportID>416</airportID>
        <IATA>TAY</IATA>
        <ICAO>EETU</ICAO>
        <city>Tartu</city>
        <latitude>58.307461</latitude>
        <longitude>26.690428</longitude>
    </airport>
    <airport>
        <airportID>417</airportID>
        <IATA>ENF</IATA>
        <ICAO>EFET</ICAO>
        <city>Enontekio</city>
        <latitude>68.362586</latitude>
        <longitude>23.424322</longitude>
    </airport>
    <airport>
        <airportID>418</airportID>
        <IATA>NO</IATA>
        <ICAO>EFEU</ICAO>
        <city>Eura</city>
        <latitude>61.116112</latitude>
        <longitude>22.201389</longitude>
    </airport>
    <airport>
        <airportID>419</airportID>
        <IATA>KEV</IATA>
        <ICAO>EFHA</ICAO>
        <city>Halli</city>
        <latitude>61.85605</latitude>
        <longitude>24.7866</longitude>
    </airport>
    <airport>
        <airportID>420</airportID>
        <IATA>HEM</IATA>
        <ICAO>EFHF</ICAO>
        <city>Helsinki</city>
        <latitude>60.254558</latitude>
        <longitude>25.042828</longitude>
    </airport>
    <airport>
        <airportID>421</airportID>
        <IATA>HEL</IATA>
        <ICAO>EFHK</ICAO>
        <city>Helsinki</city>
        <latitude>60.317222</latitude>
        <longitude>24.963333</longitude>
    </airport>
    <airport>
        <airportID>422</airportID>
        <IATA>NO</IATA>
        <ICAO>EFHM</ICAO>
        <city>Hameenkyro</city>
        <latitude>61.689656</latitude>
        <longitude>23.073744</longitude>
    </airport>
    <airport>
        <airportID>423</airportID>
        <IATA>NO</IATA>
        <ICAO>EFHN</ICAO>
        <city>Hanko</city>
        <latitude>59.848864</latitude>
        <longitude>23.083583</longitude>
    </airport>
    <airport>
        <airportID>424</airportID>
        <IATA>HYV</IATA>
        <ICAO>EFHV</ICAO>
        <city>Hyvinkaa</city>
        <latitude>60.654444</latitude>
        <longitude>24.881111</longitude>
    </airport>
    <airport>
        <airportID>425</airportID>
        <IATA>NO</IATA>
        <ICAO>EFIK</ICAO>
        <city>Kikala</city>
        <latitude>60.462502</latitude>
        <longitude>23.6525</longitude>
    </airport>
    <airport>
        <airportID>426</airportID>
        <IATA>NO</IATA>
        <ICAO>EFIM</ICAO>
        <city>Immola</city>
        <latitude>61.249172</latitude>
        <longitude>28.903711</longitude>
    </airport>
    <airport>
        <airportID>427</airportID>
        <IATA>NO</IATA>
        <ICAO>EFIT</ICAO>
        <city>Kitee</city>
        <latitude>62.166111</latitude>
        <longitude>30.073611</longitude>
    </airport>
    <airport>
        <airportID>428</airportID>
        <IATA>IVL</IATA>
        <ICAO>EFIV</ICAO>
        <city>Ivalo</city>
        <latitude>68.607269</latitude>
        <longitude>27.405328</longitude>
    </airport>
    <airport>
        <airportID>429</airportID>
        <IATA>JOE</IATA>
        <ICAO>EFJO</ICAO>
        <city>Joensuu</city>
        <latitude>62.662906</latitude>
        <longitude>29.60755</longitude>
    </airport>
    <airport>
        <airportID>430</airportID>
        <IATA>JYV</IATA>
        <ICAO>EFJY</ICAO>
        <city>Jyvaskyla</city>
        <latitude>62.399453</latitude>
        <longitude>25.678253</longitude>
    </airport>
    <airport>
        <airportID>431</airportID>
        <IATA>KAU</IATA>
        <ICAO>EFKA</ICAO>
        <city>Kauhava</city>
        <latitude>63.127078</latitude>
        <longitude>23.051442</longitude>
    </airport>
    <airport>
        <airportID>432</airportID>
        <IATA>KEM</IATA>
        <ICAO>EFKE</ICAO>
        <city>Kemi</city>
        <latitude>65.781889</latitude>
        <longitude>24.5991</longitude>
    </airport>
    <airport>
        <airportID>433</airportID>
        <IATA>KAJ</IATA>
        <ICAO>EFKI</ICAO>
        <city>Kajaani</city>
        <latitude>64.285472</latitude>
        <longitude>27.692414</longitude>
    </airport>
    <airport>
        <airportID>434</airportID>
        <IATA>NO</IATA>
        <ICAO>EFKJ</ICAO>
        <city>Kauhajoki</city>
        <latitude>62.462502</latitude>
        <longitude>22.393055</longitude>
    </airport>
    <airport>
        <airportID>435</airportID>
        <IATA>KOK</IATA>
        <ICAO>EFKK</ICAO>
        <city>Kruunupyy</city>
        <latitude>63.721172</latitude>
        <longitude>23.143131</longitude>
    </airport>
    <airport>
        <airportID>436</airportID>
        <IATA>NO</IATA>
        <ICAO>EFKM</ICAO>
        <city>Kemijarvi</city>
        <latitude>66.712883</latitude>
        <longitude>27.156786</longitude>
    </airport>
    <airport>
        <airportID>437</airportID>
        <IATA>KAO</IATA>
        <ICAO>EFKS</ICAO>
        <city>Kuusamo</city>
        <latitude>65.987575</latitude>
        <longitude>29.239381</longitude>
    </airport>
    <airport>
        <airportID>438</airportID>
        <IATA>KTT</IATA>
        <ICAO>EFKT</ICAO>
        <city>Kittila</city>
        <latitude>67.701022</latitude>
        <longitude>24.84685</longitude>
    </airport>
    <airport>
        <airportID>439</airportID>
        <IATA>KUO</IATA>
        <ICAO>EFKU</ICAO>
        <city>Kuopio</city>
        <latitude>63.00715</latitude>
        <longitude>27.797756</longitude>
    </airport>
    <airport>
        <airportID>440</airportID>
        <IATA>NO</IATA>
        <ICAO>EFLA</ICAO>
        <city>Vesivehmaa</city>
        <latitude>61.144158</latitude>
        <longitude>25.693508</longitude>
    </airport>
    <airport>
        <airportID>441</airportID>
        <IATA>LPP</IATA>
        <ICAO>EFLP</ICAO>
        <city>Lappeenranta</city>
        <latitude>61.044553</latitude>
        <longitude>28.144397</longitude>
    </airport>
    <airport>
        <airportID>442</airportID>
        <IATA>MHQ</IATA>
        <ICAO>EFMA</ICAO>
        <city>Mariehamn</city>
        <latitude>60.122203</latitude>
        <longitude>19.898156</longitude>
    </airport>
    <airport>
        <airportID>443</airportID>
        <IATA>NO</IATA>
        <ICAO>EFME</ICAO>
        <city>Menkijarvi</city>
        <latitude>62.946667</latitude>
        <longitude>23.518889</longitude>
    </airport>
    <airport>
        <airportID>444</airportID>
        <IATA>MIK</IATA>
        <ICAO>EFMI</ICAO>
        <city>Mikkeli</city>
        <latitude>61.6866</latitude>
        <longitude>27.201794</longitude>
    </airport>
    <airport>
        <airportID>445</airportID>
        <IATA>NO</IATA>
        <ICAO>EFNU</ICAO>
        <city>Nummela</city>
        <latitude>60.333889</latitude>
        <longitude>24.296389</longitude>
    </airport>
    <airport>
        <airportID>446</airportID>
        <IATA>OUL</IATA>
        <ICAO>EFOU</ICAO>
        <city>Oulu</city>
        <latitude>64.930061</latitude>
        <longitude>25.354564</longitude>
    </airport>
    <airport>
